timestamp,x,y,z,vx,vy,vz,roll,pitch,yaw
14.867,-5,5.24042,1,0,-0.653327,0,0,-0,0
14.867,-5,5.23977,1,0,-0.653327,0,0,-0,0
14.867,-5,5.23912,1,0,-0.653327,0,0,-0,0
14.867,-5,5.23846,1,0,-0.653327,0,0,-0,0
14.867,-5,5.23781,1,0,-0.653327,0,0,-0,0
14.867,-5,5.23716,1,0,-0.653327,0,0,-0,0
14.867,-5,5.2365,1,0,-0.653327,0,0,-0,0
14.867,-5,5.23585,1,0,-0.653327,0,0,-0,0
14.867,-5,5.2352,1,0,-0.653327,0,0,-0,0
14.867,-5,5.23454,1,0,-0.653327,0,0,-0,0
14.967,-5,5.18133,1,0,-0.601015,0,0,-0,0
14.967,-5,5.18073,1,0,-0.601015,0,0,-0,0
14.967,-5,5.18013,1,0,-0.601015,0,0,-0,0
14.967,-5,5.17953,1,0,-0.576444,0,0,-0,0
14.967,-5,5.17895,1,0,-0.576444,0,0,-0,0
14.967,-5,5.17838,1,0,-0.576444,0,0,-0,0
14.967,-5,5.1778,1,0,-0.576444,0,0,-0,0
14.967,-5,5.17722,1,0,-0.576444,0,0,-0,0
14.967,-5,5.17665,1,0,-0.576444,0,0,-0,0
14.967,-5,5.17607,1,0,-0.576444,0,0,-0,0
15.067,-5,5.12776,1,0,-0.520956,0,0,-0,0
15.067,-5,5.12724,1,0,-0.520956,0,0,-0,0
15.071,-5,5.12672,1,0,-0.520956,0,0,-0,0
15.071,-5,5.1262,1,0,-0.520956,0,0,-0,0
15.071,-5,5.12568,1,0,-0.520956,0,0,-0,0
15.071,-5,5.12516,1,0,-0.520956,0,0,-0,0
15.071,-5,5.12463,1,0,-0.520956,0,0,-0,0
15.071,-5,5.12411,1,0,-0.520956,0,0,-0,0
15.071,-5,5.12359,1,0,-0.520956,0,0,-0,0
15.073,-5,5.12307,1,0,-0.520956,0,0,-0,0
15.171,-5,5.07619,1,0,-0.468128,0,0,-0,0
15.171,-5,5.07573,1,0,-0.468128,0,0,-0,0
15.171,-5,5.07526,1,0,-0.468128,0,0,-0,0
15.171,-5,5.07479,1,0,-0.468128,0,0,-0,0
15.171,-5,5.07432,1,0,-0.438178,0,0,-0,0
15.171,-5,5.07257,1,0,-0.438178,0,0,-0,0
15.171,-5,5.07213,1,0,-0.438178,0,0,-0,0
15.171,-5,5.07169,1,0,-0.438178,0,0,-0,0
15.171,-5,5.07126,1,0,-0.438178,0,0,-0,0
15.171,-5,5.07082,1,0,-0.438178,0,0,-0,0
15.274,-5,5.03438,1,0,-0.36792,0,0,-0,0
15.274,-5,5.03401,1,0,-0.36792,0,0,-0,0
15.274,-5,5.03364,1,0,-0.36792,0,0,-0,0
15.274,-5,5.03327,1,0,-0.36792,0,0,-0,0
15.274,-5,5.0329,1,0,-0.36792,0,0,-0,0
15.274,-5,5.03254,1,0,-0.36792,0,0,-0,0
15.274,-5,5.03217,1,0,-0.36792,0,0,-0,0
15.274,-5,5.0318,1,0,-0.36792,0,0,-0,0
15.274,-5,5.03143,1,0,-0.36792,0,0,-0,0
15.274,-5,5.03106,1,0,-0.36792,0,0,-0,0
15.377,-5,4.9996,1,0,-0.303125,0,0,-0,0
15.377,-5,4.9993,1,0,-0.303125,0,0,-0,0
15.377,-5,4.999,1,0,-0.303125,0,0,-0,0
15.377,-5,4.99869,1,0,-0.303125,0,0,-0,0
15.377,-5,4.99839,1,0,-0.303125,0,0,-0,0
15.377,-5,4.99809,1,0,-0.303125,0,0,-0,0
15.377,-5,4.99778,1,0,-0.303125,0,0,-0,0
15.377,-5,4.99748,1,0,-0.303125,0,0,-0,0
15.377,-5,4.99718,1,0,-0.303125,0,0,-0,0
15.377,-5,4.99688,1,0,-0.303125,0,0,-0,0
15.474,-5,4.97055,1,0,-0.215858,0,0,-0,0
15.474,-5,4.97034,1,0,-0.215858,0,0,-0,0
15.474,-5,4.97012,1,0,-0.215858,0,0,-0,0
15.474,-5,4.96991,1,0,-0.215858,0,0,-0,0
15.474,-5,4.96969,1,0,-0.215858,0,0,-0,0
15.474,-5,4.96948,1,0,-0.215858,0,0,-0,0
15.474,-5,4.96926,1,0,-0.215858,0,0,-0,0
15.474,-5,4.96904,1,0,-0.215858,0,0,-0,0
15.474,-5,4.96883,1,0,-0.215858,0,0,-0,0
15.474,-5,4.96861,1,0,-0.215858,0,0,-0,0
15.576,-5,4.95309,1,0,-0.152177,0,0,-0,0
15.576,-5,4.95278,1,0,-0.152177,0,0,-0,0
15.576,-5,4.95263,1,0,-0.152177,0,0,-0,0
15.576,-5,4.95187,1,0,-0.152177,0,0,-0,0
15.576,-5,4.95172,1,0,-0.152177,0,0,-0,0
15.576,-5,4.95157,1,0,-0.152177,0,0,-0,0
15.576,-5,4.95141,1,0,-0.152177,0,0,-0,0
15.576,-5,4.95126,1,0,-0.152177,0,0,-0,0
15.576,-5,4.95111,1,0,-0.152177,0,0,-0,0
15.576,-5,4.95096,1,0,-0.152177,0,0,-0,0
15.671,-5,4.94268,1,0,-0.0727064,0,0,-0,0
15.671,-5,4.94261,1,0,-0.0727064,0,0,-0,0
15.671,-5,4.94254,1,0,-0.0727064,0,0,-0,0
15.671,-5,4.94246,1,0,-0.0727064,0,0,-0,0
15.671,-5,4.94239,1,0,-0.0727064,0,0,-0,0
15.671,-5,4.94232,1,0,-0.0727064,0,0,-0,0
15.671,-5,4.94224,1,0,-0.0727064,0,0,-0,0
15.671,-5,4.94217,1,0,-0.0727064,0,0,-0,0
15.671,-5,4.9421,1,0,-0.0727064,0,0,-0,0
15.671,-5,4.94203,1,0,-0.0727064,0,0,-0,0
15.769,-5,4.9394,1,0,0.00642934,0,0,-0,0
15.769,-5,4.9394,1,0,0.00642934,0,0,-0,0
15.769,-5,4.93941,1,0,0.00642934,0,0,-0,0
15.769,-5,4.93942,1,0,0.00642934,0,0,-0,0
15.769,-5,4.93942,1,0,0.00642934,0,0,-0,0
15.769,-5,4.93943,1,0,0.00642934,0,0,-0,0
15.769,-5,4.93944,1,0,0.00642934,0,0,-0,0
15.769,-5,4.93944,1,0,0.00642934,0,0,-0,0
15.769,-5,4.93945,1,0,0.00642934,0,0,-0,0
15.769,-5,4.93946,1,0,0.00642934,0,0,-0,0
15.88,-5,4.94446,1,0,0.103842,0,0,-0,0
15.88,-5,4.94456,1,0,0.103842,0,0,-0,0
15.88,-5,4.94466,1,0,0.103842,0,0,-0,0
15.88,-5,4.94477,1,0,0.103842,0,0,-0,0
15.88,-5,4.94487,1,0,0.103842,0,0,-0,0
15.88,-5,4.94498,1,0,0.103842,0,0,-0,0
15.88,-5,4.94549,1,0,0.103842,0,0,-0,0
15.88,-5,4.9456,1,0,0.103842,0,0,-0,0
15.88,-5,4.9457,1,0,0.103842,0,0,-0,0
15.88,-5,4.94581,1,0,0.103842,0,0,-0,0
15.978,-5,4.95936,1,0,0.181419,0,0,-0,0
15.978,-5,4.95954,1,0,0.181419,0,0,-0,0
15.978,-5,4.95972,1,0,0.181419,0,0,-0,0
15.978,-5,4.95991,1,0,0.181419,0,0,-0,0
15.978,-5,4.96009,1,0,0.181419,0,0,-0,0
15.978,-5,4.96027,1,0,0.181419,0,0,-0,0
15.978,-5,4.96045,1,0,0.181419,0,0,-0,0
15.978,-5,4.96063,1,0,0.181419,0,0,-0,0
15.978,-5,4.96081,1,0,0.181419,0,0,-0,0
15.978,-5,4.96099,1,0,0.181419,0,0,-0,0
16.077,-5,4.97866,1,0,0.262517,0,0,-0,0
16.077,-5,4.97893,1,0,0.262517,0,0,-0,0
16.077,-5,4.97971,1,0,0.262517,0,0,-0,0
16.077,-5,4.97998,1,0,0.262517,0,0,-0,0
16.077,-5,4.98103,1,0,0.262517,0,0,-0,0
16.077,-5,4.98129,1,0,0.262517,0,0,-0,0
16.077,-5,4.98155,1,0,0.262517,0,0,-0,0
16.077,-5,4.98181,1,0,0.262517,0,0,-0,0
16.077,-5,4.98208,1,0,0.262517,0,0,-0,0
16.077,-5,4.98234,1,0,0.262517,0,0,-0,0
16.173,-5,5.0093,1,0,0.323692,0,0,-0,0
16.173,-5,5.00962,1,0,0.323692,0,0,-0,0
16.173,-5,5.00995,1,0,0.323692,0,0,-0,0
16.173,-5,5.01027,1,0,0.323692,0,0,-0,0
16.173,-5,5.01059,1,0,0.323692,0,0,-0,0
16.173,-5,5.01092,1,0,0.323692,0,0,-0,0
16.173,-5,5.01124,1,0,0.323692,0,0,-0,0
16.173,-5,5.01156,1,0,0.323692,0,0,-0,0
16.173,-5,5.01189,1,0,0.323692,0,0,-0,0
16.173,-5,5.01221,1,0,0.323692,0,0,-0,0
16.269,-5,5.04384,1,0,0.410707,0,0,-0,0
16.269,-5,5.04425,1,0,0.410707,0,0,-0,0
16.269,-5,5.04466,1,0,0.410707,0,0,-0,0
16.269,-5,5.04507,1,0,0.410707,0,0,-0,0
16.269,-5,5.04548,1,0,0.410707,0,0,-0,0
16.269,-5,5.04589,1,0,0.410707,0,0,-0,0
16.269,-5,5.0463,1,0,0.410707,0,0,-0,0
16.269,-5,5.04671,1,0,0.410707,0,0,-0,0
16.269,-5,5.04713,1,0,0.410707,0,0,-0,0
16.269,-5,5.04754,1,0,0.410707,0,0,-0,0
16.371,-5,5.0886,1,0,0.468179,0,0,-0,0
16.371,-5,5.08907,1,0,0.468179,0,0,-0,0
16.371,-5,5.08954,1,0,0.468179,0,0,-0,0
16.371,-5,5.09,1,0,0.468179,0,0,-0,0
16.371,-5,5.09047,1,0,0.468179,0,0,-0,0
16.371,-5,5.09094,1,0,0.468179,0,0,-0,0
16.371,-5,5.09141,1,0,0.468179,0,0,-0,0
16.371,-5,5.09188,1,0,0.468179,0,0,-0,0
16.371,-5,5.09235,1,0,0.468179,0,0,-0,0
16.371,-5,5.09281,1,0,0.468179,0,0,-0,0
16.47,-5,5.13904,1,0,0.538646,0,0,-0,0
16.47,-5,5.13958,1,0,0.538646,0,0,-0,0
16.47,-5,5.14012,1,0,0.538646,0,0,-0,0
16.47,-5,5.14066,1,0,0.538646,0,0,-0,0
16.47,-5,5.1412,1,0,0.538646,0,0,-0,0
16.47,-5,5.14173,1,0,0.538646,0,0,-0,0
16.47,-5,5.14227,1,0,0.538646,0,0,-0,0
16.47,-5,5.14281,1,0,0.538646,0,0,-0,0
16.47,-5,5.14335,1,0,0.538646,0,0,-0,0
16.47,-5,5.14389,1,0,0.538646,0,0,-0,0
16.57,-5,5.19617,1,0,0.608072,0,0,-0,0
16.57,-5,5.19678,1,0,0.608072,0,0,-0,0
16.57,-5,5.19739,1,0,0.608072,0,0,-0,0
16.57,-5,5.19799,1,0,0.608072,0,0,-0,0
16.57,-5,5.1986,1,0,0.608072,0,0,-0,0
16.57,-5,5.19921,1,0,0.608072,0,0,-0,0
16.57,-5,5.19982,1,0,0.608072,0,0,-0,0
16.57,-5,5.20043,1,0,0.608072,0,0,-0,0
16.57,-5,5.20103,1,0,0.608072,0,0,-0,0
16.57,-5,5.20164,1,0,0.608072,0,0,-0,0
16.668,-5,5.25945,1,0,0.666593,0,0,-0,0
16.668,-5,5.26012,1,0,0.666593,0,0,-0,0
16.668,-5,5.26078,1,0,0.666593,0,0,-0,0
16.668,-5,5.26145,1,0,0.666593,0,0,-0,0
16.668,-5,5.26212,1,0,0.666593,0,0,-0,0
16.668,-5,5.26278,1,0,0.666593,0,0,-0,0
16.668,-5,5.26345,1,0,0.666593,0,0,-0,0
16.668,-5,5.26412,1,0,0.666593,0,0,-0,0
16.668,-5,5.26478,1,0,0.666593,0,0,-0,0
16.668,-5,5.26545,1,0,0.666593,0,0,-0,0
16.774,-5,5.32937,1,0,0.734975,0,0,-0,0
16.774,-5,5.3301,1,0,0.734975,0,0,-0,0
16.774,-5,5.33084,1,0,0.734975,0,0,-0,0
16.774,-5,5.33378,1,0,0.734975,0,0,-0,0
16.774,-5,5.33451,1,0,0.734975,0,0,-0,0
16.774,-5,5.33525,1,0,0.734975,0,0,-0,0
16.774,-5,5.33598,1,0,0.734975,0,0,-0,0
16.774,-5,5.33672,1,0,0.734975,0,0,-0,0
16.774,-5,5.33745,1,0,0.734975,0,0,-0,0
16.774,-5,5.33819,1,0,0.734975,0,0,-0,0
16.873,-5,5.40849,1,0,0.775325,0,0,-0,0
16.873,-5,5.40926,1,0,0.775325,0,0,-0,0
16.873,-5,5.41004,1,0,0.775325,0,0,-0,0
16.873,-5,5.41081,1,0,0.775325,0,0,-0,0
16.873,-5,5.41159,1,0,0.775325,0,0,-0,0
16.873,-5,5.41236,1,0,0.775325,0,0,-0,0
16.873,-5,5.41314,1,0,0.775325,0,0,-0,0
16.873,-5,5.41391,1,0,0.775325,0,0,-0,0
16.873,-5,5.41469,1,0,0.775325,0,0,-0,0
16.873,-5,5.41546,1,0,0.775325,0,0,-0,0
16.976,-5,5.49144,1,0,0.834503,0,0,-0,0
16.976,-5,5.49227,1,0,0.834503,0,0,-0,0
16.976,-5,5.49311,1,0,0.834503,0,0,-0,0
16.976,-5,5.49394,1,0,0.834503,0,0,-0,0
16.976,-5,5.49477,1,0,0.834503,0,0,-0,0
16.976,-5,5.49561,1,0,0.834503,0,0,-0,0
16.976,-5,5.49644,1,0,0.834503,0,0,-0,0
16.976,-5,5.49728,1,0,0.834503,0,0,-0,0
16.976,-5,5.49811,1,0,0.834503,0,0,-0,0
16.976,-5,5.49895,1,0,0.834503,0,0,-0,0
17.071,-5,5.57222,1,0,0.873541,0,0,-0,0
17.071,-5,5.57309,1,0,0.873541,0,0,-0,0
17.071,-5,5.57397,1,0,0.873541,0,0,-0,0
17.071,-5,5.57484,1,0,0.873541,0,0,-0,0
17.071,-5,5.57572,1,0,0.873541,0,0,-0,0
17.071,-5,5.57659,1,0,0.873541,0,0,-0,0
17.071,-5,5.57746,1,0,0.873541,0,0,-0,0
17.071,-5,5.57834,1,0,0.873541,0,0,-0,0
17.071,-5,5.57921,1,0,0.873541,0,0,-0,0
17.071,-5,5.58008,1,0,0.873541,0,0,-0,0
17.172,-5,5.64745,1,0,0.896599,0,0,-0,0
17.172,-5,5.64834,1,0,0.896599,0,0,-0,0
17.172,-5,5.64924,1,0,0.896599,0,0,-0,0
17.172,-5,5.65014,1,0,0.896599,0,0,-0,0
17.172,-5,5.65103,1,0,0.896599,0,0,-0,0
17.172,-5,5.65193,1,0,0.896599,0,0,-0,0
17.172,-5,5.65283,1,0,0.896599,0,0,-0,0
17.172,-5,5.65372,1,0,0.896599,0,0,-0,0
17.172,-5,5.65462,1,0,0.896599,0,0,-0,0
17.172,-5,5.65552,1,0,0.911629,0,0,-0,0
17.272,-5,5.75412,1,0,0.934634,0,0,-0,0
17.272,-5,5.75506,1,0,0.934634,0,0,-0,0
17.272,-5,5.75599,1,0,0.934634,0,0,-0,0
17.272,-5,5.75693,1,0,0.934634,0,0,-0,0
17.272,-5,5.75786,1,0,0.934634,0,0,-0,0
17.272,-5,5.7588,1,0,0.934634,0,0,-0,0
17.272,-5,5.75973,1,0,0.934634,0,0,-0,0
17.272,-5,5.76067,1,0,0.934634,0,0,-0,0
17.272,-5,5.7616,1,0,0.934634,0,0,-0,0
17.272,-5,5.76254,1,0,0.934634,0,0,-0,0
17.368,-5,5.83282,1,0,0.956637,0,0,-0,0
17.368,-5,5.83377,1,0,0.956637,0,0,-0,0
17.369,-5,5.83473,1,0,0.956637,0,0,-0,0
17.369,-5,5.83569,1,0,0.956637,0,0,-0,0
17.369,-5,5.83664,1,0,0.956637,0,0,-0,0
17.369,-5,5.8376,1,0,0.956637,0,0,-0,0
17.369,-5,5.83856,1,0,0.956637,0,0,-0,0
17.369,-5,5.83951,1,0,0.956637,0,0,-0,0
17.369,-5,5.84047,1,0,0.956637,0,0,-0,0
17.369,-5,5.84143,1,0,0.956637,0,0,-0,0
17.47,-5,5.93363,1,0,0.980468,0,0,-0,0
17.47,-5,5.93461,1,0,0.980468,0,0,-0,0
17.47,-5,5.93559,1,0,0.980468,0,0,-0,0
17.47,-5,5.93657,1,0,0.980468,0,0,-0,0
17.47,-5,5.93755,1,0,0.980468,0,0,-0,0
17.471,-5,5.93853,1,0,0.980468,0,0,-0,0
17.471,-5,5.93951,1,0,0.980468,0,0,-0,0
17.471,-5,5.94049,1,0,0.980468,0,0,-0,0
17.471,-5,5.94147,1,0,0.980468,0,0,-0,0
17.471,-5,5.94245,1,0,0.980468,0,0,-0,0
17.568,-5,6.04019,1,0,0.992276,0,0,-0,0
17.568,-5,6.04118,1,0,0.992276,0,0,-0,0
17.568,-5,6.04218,1,0,0.992276,0,0,-0,0
17.568,-5,6.04317,1,0,0.992276,0,0,-0,0
17.568,-5,6.04416,1,0,0.992276,0,0,-0,0
17.568,-5,6.04515,1,0,0.992276,0,0,-0,0
17.568,-5,6.04614,1,0,0.992276,0,0,-0,0
17.568,-5,6.04714,1,0,0.992276,0,0,-0,0
17.568,-5,6.04813,1,0,0.992276,0,0,-0,0
17.568,-5,6.04912,1,0,0.992276,0,0,-0,0
17.671,-5,6.12986,1,0,0.99912,0,0,-0,0
17.671,-5,6.13086,1,0,0.99912,0,0,-0,0
17.671,-5,6.13185,1,0,0.99912,0,0,-0,0
17.671,-5,6.13285,1,0,0.99912,0,0,-0,0
17.671,-5,6.13385,1,0,0.99912,0,0,-0,0
17.671,-5,6.13485,1,0,0.99912,0,0,-0,0
17.671,-5,6.13585,1,0,0.99912,0,0,-0,0
17.671,-5,6.13685,1,0,0.99912,0,0,-0,0
17.671,-5,6.13785,1,0,0.99912,0,0,-0,0
17.671,-5,6.13885,1,0,0.99912,0,0,-0,0
17.77,-5,6.23182,1,0,0.998541,0,0,-0,0
17.77,-5,6.23282,1,0,0.998541,0,0,-0,0
17.77,-5,6.23382,1,0,0.998541,0,0,-0,0
17.77,-5,6.23482,1,0,0.998541,0,0,-0,0
17.77,-5,6.23582,1,0,0.998541,0,0,-0,0
17.77,-5,6.23681,1,0,0.998541,0,0,-0,0
17.77,-5,6.23781,1,0,0.998541,0,0,-0,0
17.77,-5,6.23881,1,0,0.998541,0,0,-0,0
17.77,-5,6.23981,1,0,0.998541,0,0,-0,0
17.77,-5,6.24081,1,0,0.998541,0,0,-0,0
17.873,-5,6.3454,1,0,0.993136,0,0,-0,0
17.873,-5,6.34639,1,0,0.993136,0,0,-0,0
17.873,-5,6.34738,1,0,0.993136,0,0,-0,0
17.873,-5,6.34838,1,0,0.993136,0,0,-0,0
17.873,-5,6.34937,1,0,0.993136,0,0,-0,0
17.873,-5,6.35036,1,0,0.993136,0,0,-0,0
17.873,-5,6.35135,1,0,0.993136,0,0,-0,0
17.873,-5,6.35235,1,0,0.993136,0,0,-0,0
17.873,-5,6.35334,1,0,0.993136,0,0,-0,0
17.873,-5,6.35433,1,0,0.993136,0,0,-0,0
17.979,-5,6.44987,1,0,0.977352,0,0,-0,0
17.979,-5,6.45084,1,0,0.977352,0,0,-0,0
17.979,-5,6.45182,1,0,0.977352,0,0,-0,0
17.979,-5,6.4528,1,0,0.977352,0,0,-0,0
17.979,-5,6.45377,1,0,0.977352,0,0,-0,0
17.979,-5,6.45475,1,0,0.977352,0,0,-0,0
17.979,-5,6.45573,1,0,0.977352,0,0,-0,0
17.979,-5,6.45671,1,0,0.977352,0,0,-0,0
17.979,-5,6.45768,1,0,0.977352,0,0,-0,0
17.979,-5,6.45866,1,0,0.977352,0,0,-0,0
18.076,-5,6.54288,1,0,0.957545,0,0,-0,0
18.076,-5,6.54384,1,0,0.957545,0,0,-0,0
18.076,-5,6.5448,1,0,0.957545,0,0,-0,0
18.076,-5,6.54576,1,0,0.957545,0,0,-0,0
18.076,-5,6.54671,1,0,0.957545,0,0,-0,0
18.076,-5,6.54767,1,0,0.957545,0,0,-0,0
18.076,-5,6.54863,1,0,0.957545,0,0,-0,0
18.076,-5,6.54959,1,0,0.957545,0,0,-0,0
18.076,-5,6.55054,1,0,0.957545,0,0,-0,0
18.076,-5,6.5515,1,0,0.957545,0,0,-0,0
18.181,-5,6.64319,1,0,0.936588,0,0,-0,0
18.181,-5,6.64413,1,0,0.936588,0,0,-0,0
18.181,-5,6.64507,1,0,0.936588,0,0,-0,0
18.181,-5,6.646,1,0,0.936588,0,0,-0,0
18.181,-5,6.64694,1,0,0.936588,0,0,-0,0
18.181,-5,6.64788,1,0,0.936588,0,0,-0,0
18.181,-5,6.64881,1,0,0.936588,0,0,-0,0
18.181,-5,6.64975,1,0,0.936588,0,0,-0,0
18.181,-5,6.65069,1,0,0.936588,0,0,-0,0
18.181,-5,6.65162,1,0,0.936588,0,0,-0,0
18.275,-5,6.72226,1,0,0.912912,0,0,-0,0
18.275,-5,6.72318,1,0,0.912912,0,0,-0,0
18.275,-5,6.72409,1,0,0.912912,0,0,-0,0
18.275,-5,6.725,1,0,0.89657,0,0,-0,0
18.275,-5,6.72859,1,0,0.89657,0,0,-0,0
18.275,-5,6.72949,1,0,0.89657,0,0,-0,0
18.275,-5,6.73038,1,0,0.89657,0,0,-0,0
18.275,-5,6.73128,1,0,0.89657,0,0,-0,0
18.275,-5,6.73218,1,0,0.89657,0,0,-0,0
18.275,-5,6.73307,1,0,0.89657,0,0,-0,0
18.38,-5,6.81784,1,0,0.869191,0,0,-0,0
18.38,-5,6.82219,1,0,0.869191,0,0,-0,0
18.38,-5,6.82306,1,0,0.869191,0,0,-0,0
18.38,-5,6.82393,1,0,0.869191,0,0,-0,0
18.38,-5,6.8248,1,0,0.869191,0,0,-0,0
18.38,-5,6.82566,1,0,0.869191,0,0,-0,0
18.38,-5,6.82653,1,0,0.869191,0,0,-0,0
18.38,-5,6.8274,1,0,0.869191,0,0,-0,0
18.38,-5,6.82827,1,0,0.869191,0,0,-0,0
18.38,-5,6.82914,1,0,0.869191,0,0,-0,0
18.468,-5,6.89652,1,0,0.823733,0,0,-0,0
18.468,-5,6.89734,1,0,0.823733,0,0,-0,0
18.468,-5,6.89817,1,0,0.823733,0,0,-0,0
18.468,-5,6.89899,1,0,0.823733,0,0,-0,0
18.468,-5,6.89982,1,0,0.823733,0,0,-0,0
18.468,-5,6.90064,1,0,0.823733,0,0,-0,0
18.468,-5,6.90146,1,0,0.823733,0,0,-0,0
18.468,-5,6.90229,1,0,0.823733,0,0,-0,0
18.468,-5,6.90311,1,0,0.823733,0,0,-0,0
18.468,-5,6.90393,1,0,0.823733,0,0,-0,0
18.57,-5,6.96818,1,0,0.788744,0,0,-0,0
18.57,-5,6.96896,1,0,0.788744,0,0,-0,0
18.57,-5,6.96975,1,0,0.788744,0,0,-0,0
18.57,-5,6.97054,1,0,0.788744,0,0,-0,0
18.57,-5,6.97133,1,0,0.788744,0,0,-0,0
18.57,-5,6.97212,1,0,0.788744,0,0,-0,0
18.57,-5,6.97291,1,0,0.788744,0,0,-0,0
18.57,-5,6.9737,1,0,0.788744,0,0,-0,0
18.57,-5,6.97449,1,0,0.788744,0,0,-0,0
18.57,-5,6.97527,1,0,0.767135,0,0,-0,0
18.68,-5,7.05105,1,0,0.716215,0,0,-0,0
18.68,-5,7.05176,1,0,0.716215,0,0,-0,0
18.68,-5,7.05248,1,0,0.716215,0,0,-0,0
18.68,-5,7.05319,1,0,0.716215,0,0,-0,0
18.68,-5,7.05391,1,0,0.716215,0,0,-0,0
18.68,-5,7.05463,1,0,0.716215,0,0,-0,0
18.68,-5,7.05534,1,0,0.716215,0,0,-0,0
18.68,-5,7.05606,1,0,0.716215,0,0,-0,0
18.68,-5,7.05678,1,0,0.716215,0,0,-0,0
18.68,-5,7.05749,1,0,0.716215,0,0,-0,0
18.768,-5,7.12066,1,0,0.665948,0,0,-0,0
18.768,-5,7.12133,1,0,0.665948,0,0,-0,0
18.768,-5,7.122,1,0,0.665948,0,0,-0,0
18.768,-5,7.12266,1,0,0.665948,0,0,-0,0
18.768,-5,7.12333,1,0,0.665948,0,0,-0,0
18.768,-5,7.12399,1,0,0.665948,0,0,-0,0
18.768,-5,7.12466,1,0,0.665948,0,0,-0,0
18.768,-5,7.12533,1,0,0.665948,0,0,-0,0
18.768,-5,7.12599,1,0,0.665948,0,0,-0,0
18.768,-5,7.12666,1,0,0.665948,0,0,-0,0
18.881,-5,7.18852,1,0,0.605476,0,0,-0,0
18.881,-5,7.18913,1,0,0.605476,0,0,-0,0
18.881,-5,7.18973,1,0,0.595882,0,0,-0,0
18.881,-5,7.19271,1,0,0.595882,0,0,-0,0
18.881,-5,7.19331,1,0,0.595882,0,0,-0,0
18.881,-5,7.1939,1,0,0.595882,0,0,-0,0
18.881,-5,7.1945,1,0,0.595882,0,0,-0,0
18.881,-5,7.19509,1,0,0.595882,0,0,-0,0
18.881,-5,7.19569,1,0,0.595882,0,0,-0,0
18.881,-5,7.19629,1,0,0.595882,0,0,-0,0
18.967,-5,7.23828,1,0,0.539938,0,0,-0,0
18.967,-5,7.23882,1,0,0.539938,0,0,-0,0
18.969,-5,7.23936,1,0,0.539938,0,0,-0,0
18.969,-5,7.2399,1,0,0.539938,0,0,-0,0
18.969,-5,7.24044,1,0,0.539938,0,0,-0,0
18.969,-5,7.24098,1,0,0.539938,0,0,-0,0
18.969,-5,7.24152,1,0,0.539938,0,0,-0,0
18.969,-5,7.24206,1,0,0.539938,0,0,-0,0
18.969,-5,7.2426,1,0,0.539938,0,0,-0,0
18.969,-5,7.24314,1,0,0.539938,0,0,-0,0
19.073,-5,7.28875,1,0,0.469534,0,0,-0,0
19.073,-5,7.28922,1,0,0.469534,0,0,-0,0
19.073,-5,7.28969,1,0,0.469534,0,0,-0,0
19.073,-5,7.29016,1,0,0.469534,0,0,-0,0
19.073,-5,7.29062,1,0,0.469534,0,0,-0,0
19.073,-5,7.29109,1,0,0.469534,0,0,-0,0
19.073,-5,7.29156,1,0,0.469534,0,0,-0,0
19.073,-5,7.29203,1,0,0.469534,0,0,-0,0
19.073,-5,7.2925,1,0,0.469534,0,0,-0,0
19.073,-5,7.29297,1,0,0.469534,0,0,-0,0
19.167,-5,7.3354,1,0,0.399676,0,0,-0,0
19.167,-5,7.3358,1,0,0.399676,0,0,-0,0
19.167,-5,7.3362,1,0,0.399676,0,0,-0,0
19.167,-5,7.3366,1,0,0.399676,0,0,-0,0
19.167,-5,7.337,1,0,0.399676,0,0,-0,0
19.167,-5,7.3374,1,0,0.399676,0,0,-0,0
19.167,-5,7.3378,1,0,0.399676,0,0,-0,0
19.167,-5,7.3382,1,0,0.399676,0,0,-0,0
19.167,-5,7.3386,1,0,0.399676,0,0,-0,0
19.167,-5,7.339,1,0,0.399676,0,0,-0,0
19.277,-5,7.37451,1,0,0.313772,0,0,-0,0
19.277,-5,7.37483,1,0,0.313772,0,0,-0,0
19.277,-5,7.37514,1,0,0.313772,0,0,-0,0
19.277,-5,7.37545,1,0,0.313772,0,0,-0,0
19.277,-5,7.37577,1,0,0.313772,0,0,-0,0
19.277,-5,7.37608,1,0,0.313772,0,0,-0,0
19.277,-5,7.3764,1,0,0.313772,0,0,-0,0
19.277,-5,7.37671,1,0,0.313772,0,0,-0,0
19.277,-5,7.37702,1,0,0.313772,0,0,-0,0
19.277,-5,7.37734,1,0,0.313772,0,0,-0,0
19.371,-5,7.40087,1,0,0.250855,0,0,-0,0
19.371,-5,7.40112,1,0,0.250855,0,0,-0,0
19.371,-5,7.40137,1,0,0.250855,0,0,-0,0
19.371,-5,7.40162,1,0,0.250855,0,0,-0,0
19.371,-5,7.40187,1,0,0.250855,0,0,-0,0
19.371,-5,7.40212,1,0,0.250855,0,0,-0,0
19.371,-5,7.40237,1,0,0.250855,0,0,-0,0
19.371,-5,7.40262,1,0,0.250855,0,0,-0,0
19.371,-5,7.40287,1,0,0.250855,0,0,-0,0
19.371,-5,7.40313,1,0,0.250855,0,0,-0,0
19.478,-5,7.42059,1,0,0.155332,0,0,-0,0
19.478,-5,7.42075,1,0,0.155332,0,0,-0,0
19.478,-5,7.4209,1,0,0.155332,0,0,-0,0
19.478,-5,7.42106,1,0,0.155332,0,0,-0,0
19.478,-5,7.42121,1,0,0.155332,0,0,-0,0
19.478,-5,7.42137,1,0,0.155332,0,0,-0,0
19.478,-5,7.42152,1,0,0.155332,0,0,-0,0
19.478,-5,7.42168,1,0,0.155332,0,0,-0,0
19.478,-5,7.42183,1,0,0.155332,0,0,-0,0
19.478,-5,7.42199,1,0,0.155332,0,0,-0,0
19.572,-5,7.43397,1,0,0.0734969,0,0,-0,0
19.572,-5,7.43404,1,0,0.0734969,0,0,-0,0
19.572,-5,7.43411,1,0,0.0734969,0,0,-0,0
19.572,-5,7.43419,1,0,0.0734969,0,0,-0,0
19.572,-5,7.43426,1,0,0.0734969,0,0,-0,0
19.572,-5,7.43433,1,0,0.0734969,0,0,-0,0
19.572,-5,7.43441,1,0,0.0734969,0,0,-0,0
19.572,-5,7.43448,1,0,0.0734969,0,0,-0,0
19.572,-5,7.43456,1,0,0.0734969,0,0,-0,0
19.572,-5,7.43463,1,0,0.0734969,0,0,-0,0
19.667,-5,7.43864,1,0,-0.00163673,0,0,-0,0
19.667,-5,7.43864,1,0,-0.00163673,0,0,-0,0
19.667,-5,7.43864,1,0,-0.00163673,0,0,-0,0
19.667,-5,7.43864,1,0,-0.00163673,0,0,-0,0
19.667,-5,7.43863,1,0,-0.00163673,0,0,-0,0
19.667,-5,7.43863,1,0,-0.00163673,0,0,-0,0
19.667,-5,7.43863,1,0,-0.00163673,0,0,-0,0
19.667,-5,7.43863,1,0,-0.00163673,0,0,-0,0
19.667,-5,7.43863,1,0,-0.00163673,0,0,-0,0
19.667,-5,7.43863,1,0,-0.00163673,0,0,-0,0
19.777,-5,7.43499,1,0,-0.0815461,0,0,-0,0
19.777,-5,7.4349,1,0,-0.0815461,0,0,-0,0
19.777,-5,7.43482,1,0,-0.0815461,0,0,-0,0
19.777,-5,7.43474,1,0,-0.0815461,0,0,-0,0
19.777,-5,7.43466,1,0,-0.0815461,0,0,-0,0
19.777,-5,7.43458,1,0,-0.0815461,0,0,-0,0
19.777,-5,7.4345,1,0,-0.0815461,0,0,-0,0
19.777,-5,7.43442,1,0,-0.0815461,0,0,-0,0
19.777,-5,7.43433,1,0,-0.0815461,0,0,-0,0
19.777,-5,7.43425,1,0,-0.0815461,0,0,-0,0
19.872,-5,7.42517,1,0,-0.145122,0,0,-0,0
19.872,-5,7.42503,1,0,-0.145122,0,0,-0,0
19.872,-5,7.42488,1,0,-0.145122,0,0,-0,0
19.872,-5,7.42474,1,0,-0.145122,0,0,-0,0
19.872,-5,7.42459,1,0,-0.145122,0,0,-0,0
19.872,-5,7.42445,1,0,-0.145122,0,0,-0,0
19.872,-5,7.42387,1,0,-0.145122,0,0,-0,0
19.872,-5,7.42372,1,0,-0.145122,0,0,-0,0
19.872,-5,7.42358,1,0,-0.145122,0,0,-0,0
19.872,-5,7.42343,1,0,-0.145122,0,0,-0,0
19.971,-5,7.40609,1,0,-0.211233,0,0,-0,0
19.971,-5,7.40588,1,0,-0.240069,0,0,-0,0
19.971,-5,7.40492,1,0,-0.240069,0,0,-0,0
19.971,-5,7.40468,1,0,-0.240069,0,0,-0,0
19.971,-5,7.40444,1,0,-0.240069,0,0,-0,0
19.971,-5,7.4042,1,0,-0.240069,0,0,-0,0
19.971,-5,7.40396,1,0,-0.240069,0,0,-0,0
19.971,-5,7.40372,1,0,-0.240069,0,0,-0,0
19.971,-5,7.40348,1,0,-0.240069,0,0,-0,0
19.971,-5,7.40324,1,0,-0.240069,0,0,-0,0
20.07,-5,7.37843,1,0,-0.300137,0,0,-0,0
20.07,-5,7.37813,1,0,-0.300137,0,0,-0,0
20.07,-5,7.37783,1,0,-0.300137,0,0,-0,0
20.07,-5,7.37753,1,0,-0.300137,0,0,-0,0
20.07,-5,7.37723,1,0,-0.300137,0,0,-0,0
20.07,-5,7.37693,1,0,-0.300137,0,0,-0,0
20.07,-5,7.37663,1,0,-0.300137,0,0,-0,0
20.07,-5,7.37633,1,0,-0.300137,0,0,-0,0
20.07,-5,7.37603,1,0,-0.300137,0,0,-0,0
20.07,-5,7.37573,1,0,-0.300137,0,0,-0,0
20.168,-5,7.34534,1,0,-0.379112,0,0,-0,0
20.168,-5,7.34497,1,0,-0.379112,0,0,-0,0
20.168,-5,7.34459,1,0,-0.379112,0,0,-0,0
20.168,-5,7.34421,1,0,-0.379112,0,0,-0,0
20.168,-5,7.34383,1,0,-0.379112,0,0,-0,0
20.168,-5,7.34345,1,0,-0.379112,0,0,-0,0
20.168,-5,7.34307,1,0,-0.379112,0,0,-0,0
20.171,-5,7.34269,1,0,-0.379112,0,0,-0,0
20.171,-5,7.34231,1,0,-0.379112,0,0,-0,0
20.171,-5,7.34193,1,0,-0.394604,0,0,-0,0
20.273,-5,7.30677,1,0,-0.449707,0,0,-0,0
20.273,-5,7.30632,1,0,-0.449707,0,0,-0,0
20.273,-5,7.30587,1,0,-0.449707,0,0,-0,0
20.273,-5,7.30542,1,0,-0.449707,0,0,-0,0
20.273,-5,7.30497,1,0,-0.449707,0,0,-0,0
20.273,-5,7.30452,1,0,-0.449707,0,0,-0,0
20.273,-5,7.30407,1,0,-0.449707,0,0,-0,0
20.273,-5,7.30362,1,0,-0.449707,0,0,-0,0
20.273,-5,7.30317,1,0,-0.449707,0,0,-0,0
20.273,-5,7.30272,1,0,-0.449707,0,0,-0,0
20.375,-5,7.25529,1,0,-0.522377,0,0,-0,0
20.375,-5,7.25476,1,0,-0.522377,0,0,-0,0
20.375,-5,7.25424,1,0,-0.522377,0,0,-0,0
20.375,-5,7.25372,1,0,-0.522377,0,0,-0,0
20.375,-5,7.2532,1,0,-0.522377,0,0,-0,0
20.375,-5,7.25267,1,0,-0.522377,0,0,-0,0
20.375,-5,7.25215,1,0,-0.522377,0,0,-0,0
20.375,-5,7.25163,1,0,-0.522377,0,0,-0,0
20.375,-5,7.25111,1,0,-0.522377,0,0,-0,0
20.375,-5,7.25058,1,0,-0.522377,0,0,-0,0
20.468,-5,7.20208,1,0,-0.588204,0,0,-0,0
20.468,-5,7.20149,1,0,-0.588204,0,0,-0,0
20.468,-5,7.2009,1,0,-0.588204,0,0,-0,0
20.468,-5,7.20032,1,0,-0.588204,0,0,-0,0
20.468,-5,7.19973,1,0,-0.588204,0,0,-0,0
20.468,-5,7.19914,1,0,-0.588204,0,0,-0,0
20.468,-5,7.19855,1,0,-0.588204,0,0,-0,0
20.468,-5,7.19796,1,0,-0.588204,0,0,-0,0
20.468,-5,7.19738,1,0,-0.588204,0,0,-0,0
20.468,-5,7.19679,1,0,-0.588204,0,0,-0,0
20.567,-5,7.13653,1,0,-0.648519,0,0,-0,0
20.567,-5,7.13588,1,0,-0.648519,0,0,-0,0
20.567,-5,7.13523,1,0,-0.648519,0,0,-0,0
20.567,-5,7.13458,1,0,-0.648519,0,0,-0,0
20.567,-5,7.13393,1,0,-0.648519,0,0,-0,0
20.567,-5,7.13328,1,0,-0.648519,0,0,-0,0
20.567,-5,7.13264,1,0,-0.648519,0,0,-0,0
20.567,-5,7.13199,1,0,-0.648519,0,0,-0,0
20.567,-5,7.13134,1,0,-0.648519,0,0,-0,0
20.567,-5,7.13069,1,0,-0.648519,0,0,-0,0
20.672,-5,7.06486,1,0,-0.719052,0,0,-0,0
20.672,-5,7.06414,1,0,-0.719052,0,0,-0,0
20.672,-5,7.06342,1,0,-0.719052,0,0,-0,0
20.672,-5,7.0627,1,0,-0.719052,0,0,-0,0
20.672,-5,7.06199,1,0,-0.719052,0,0,-0,0
20.672,-5,7.06127,1,0,-0.719052,0,0,-0,0
20.672,-5,7.06055,1,0,-0.719052,0,0,-0,0
20.672,-5,7.05983,1,0,-0.719052,0,0,-0,0
20.672,-5,7.05911,1,0,-0.719052,0,0,-0,0
20.672,-5,7.05839,1,0,-0.719052,0,0,-0,0
20.767,-5,7.00151,1,0,-0.771272,0,0,-0,0
20.767,-5,7.00074,1,0,-0.771272,0,0,-0,0
20.767,-5,6.99997,1,0,-0.771272,0,0,-0,0
20.767,-5,6.99919,1,0,-0.771272,0,0,-0,0
20.767,-5,6.99842,1,0,-0.771272,0,0,-0,0
20.767,-5,6.99765,1,0,-0.771272,0,0,-0,0
20.767,-5,6.99688,1,0,-0.771272,0,0,-0,0
20.767,-5,6.99611,1,0,-0.771272,0,0,-0,0
20.767,-5,6.99534,1,0,-0.771272,0,0,-0,0
20.767,-5,6.99457,1,0,-0.771272,0,0,-0,0
20.876,-5,6.91409,1,0,-0.811805,0,0,-0,0
20.876,-5,6.91246,1,0,-0.811805,0,0,-0,0
20.876,-5,6.91165,1,0,-0.811805,0,0,-0,0
20.876,-5,6.91084,1,0,-0.811805,0,0,-0,0
20.876,-5,6.91003,1,0,-0.820587,0,0,-0,0
20.876,-5,6.90839,1,0,-0.820587,0,0,-0,0
20.876,-5,6.90757,1,0,-0.820587,0,0,-0,0
20.876,-5,6.90675,1,0,-0.820587,0,0,-0,0
20.876,-5,6.90593,1,0,-0.820587,0,0,-0,0
20.876,-5,6.9051,1,0,-0.820587,0,0,-0,0
20.969,-5,6.8305,1,0,-0.865244,0,0,-0,0
20.969,-5,6.82963,1,0,-0.865244,0,0,-0,0
20.969,-5,6.82877,1,0,-0.865244,0,0,-0,0
20.969,-5,6.8279,1,0,-0.865244,0,0,-0,0
20.969,-5,6.82704,1,0,-0.865244,0,0,-0,0
20.969,-5,6.82617,1,0,-0.865244,0,0,-0,0
20.969,-5,6.82531,1,0,-0.865244,0,0,-0,0
20.969,-5,6.82444,1,0,-0.865244,0,0,-0,0
20.969,-5,6.82358,1,0,-0.865244,0,0,-0,0
20.969,-5,6.82271,1,0,-0.865244,0,0,-0,0
21.078,-5,6.73463,1,0,-0.900465,0,0,-0,0
21.078,-5,6.73373,1,0,-0.900465,0,0,-0,0
21.078,-5,6.73283,1,0,-0.900465,0,0,-0,0
21.078,-5,6.73193,1,0,-0.900465,0,0,-0,0
21.078,-5,6.73102,1,0,-0.900465,0,0,-0,0
21.078,-5,6.73012,1,0,-0.900465,0,0,-0,0
21.078,-5,6.72922,1,0,-0.900465,0,0,-0,0
21.078,-5,6.72832,1,0,-0.900465,0,0,-0,0
21.078,-5,6.72742,1,0,-0.900465,0,0,-0,0
21.078,-5,6.72652,1,0,-0.900465,0,0,-0,0
21.17,-5,6.65054,1,0,-0.933494,0,0,-0,0
21.17,-5,6.64961,1,0,-0.933494,0,0,-0,0
21.17,-5,6.64868,1,0,-0.933494,0,0,-0,0
21.17,-5,6.64774,1,0,-0.933494,0,0,-0,0
21.17,-5,6.64681,1,0,-0.933494,0,0,-0,0
21.17,-5,6.64588,1,0,-0.933494,0,0,-0,0
21.17,-5,6.64494,1,0,-0.933494,0,0,-0,0
21.17,-5,6.64401,1,0,-0.933494,0,0,-0,0
21.17,-5,6.64308,1,0,-0.933494,0,0,-0,0
21.17,-5,6.64214,1,0,-0.933494,0,0,-0,0
21.28,-5,6.54758,1,0,-0.958712,0,0,-0,0
21.28,-5,6.54662,1,0,-0.958712,0,0,-0,0
21.28,-5,6.54566,1,0,-0.958712,0,0,-0,0
21.28,-5,6.54471,1,0,-0.958712,0,0,-0,0
21.28,-5,6.54375,1,0,-0.958712,0,0,-0,0
21.28,-5,6.54279,1,0,-0.958712,0,0,-0,0
21.28,-5,6.54183,1,0,-0.958712,0,0,-0,0
21.28,-5,6.54087,1,0,-0.958712,0,0,-0,0
21.28,-5,6.53991,1,0,-0.958712,0,0,-0,0
21.28,-5,6.53895,1,0,-0.958712,0,0,-0,0
21.378,-5,6.46636,1,0,-0.975114,0,0,-0,0
21.378,-5,6.46538,1,0,-0.975114,0,0,-0,0
21.378,-5,6.46441,1,0,-0.975114,0,0,-0,0
21.378,-5,6.46343,1,0,-0.975114,0,0,-0,0
21.378,-5,6.46246,1,0,-0.975114,0,0,-0,0
21.378,-5,6.46148,1,0,-0.975114,0,0,-0,0
21.378,-5,6.46051,1,0,-0.975114,0,0,-0,0
21.378,-5,6.45953,1,0,-0.975114,0,0,-0,0
21.378,-5,6.45856,1,0,-0.975114,0,0,-0,0
21.378,-5,6.45758,1,0,-0.975114,0,0,-0,0
21.473,-5,6.3582,1,0,-0.990166,0,0,-0,0
21.473,-5,6.35721,1,0,-0.990166,0,0,-0,0
21.473,-5,6.35622,1,0,-0.990166,0,0,-0,0
21.473,-5,6.35523,1,0,-0.990166,0,0,-0,0
21.473,-5,6.35424,1,0,-0.990166,0,0,-0,0
21.473,-5,6.35325,1,0,-0.990166,0,0,-0,0
21.473,-5,6.35226,1,0,-0.990166,0,0,-0,0
21.473,-5,6.35127,1,0,-0.990166,0,0,-0,0
21.473,-5,6.35028,1,0,-0.990166,0,0,-0,0
21.473,-5,6.34929,1,0,-0.993784,0,0,-0,0
21.567,-5,6.26468,1,0,-0.998944,0,0,-0,0
21.567,-5,6.26368,1,0,-0.998944,0,0,-0,0
21.567,-5,6.26268,1,0,-0.998944,0,0,-0,0
21.567,-5,6.26168,1,0,-0.998944,0,0,-0,0
21.567,-5,6.26068,1,0,-0.998944,0,0,-0,0
21.567,-5,6.25968,1,0,-0.998944,0,0,-0,0
21.567,-5,6.25868,1,0,-0.998944,0,0,-0,0
21.567,-5,6.25769,1,0,-0.998944,0,0,-0,0
21.567,-5,6.25669,1,0,-0.998944,0,0,-0,0
21.567,-5,6.25569,1,0,-0.998944,0,0,-0,0
21.676,-5,6.16573,1,0,-0.999807,0,0,-0,0
21.676,-5,6.16473,1,0,-0.999807,0,0,-0,0
21.676,-5,6.16373,1,0,-0.999807,0,0,-0,0
21.676,-5,6.16273,1,0,-0.999807,0,0,-0,0
21.676,-5,6.16173,1,0,-0.999807,0,0,-0,0
21.676,-5,6.16073,1,0,-0.999807,0,0,-0,0
21.676,-5,6.15973,1,0,-0.999807,0,0,-0,0
21.676,-5,6.15573,1,0,-0.999807,0,0,-0,0
21.676,-5,6.15473,1,0,-0.999807,0,0,-0,0
21.676,-5,6.15373,1,0,-0.999807,0,0,-0,0
21.772,-5,6.0719,1,0,-0.995353,0,0,-0,0
21.772,-5,6.07091,1,0,-0.995353,0,0,-0,0
21.772,-5,6.06991,1,0,-0.995353,0,0,-0,0
21.772,-5,6.06891,1,0,-0.995353,0,0,-0,0
21.772,-5,6.06792,1,0,-0.995353,0,0,-0,0
21.772,-5,6.06692,1,0,-0.995353,0,0,-0,0
21.772,-5,6.06593,1,0,-0.995353,0,0,-0,0
21.772,-5,6.06493,1,0,-0.995353,0,0,-0,0
21.772,-5,6.06394,1,0,-0.995353,0,0,-0,0
21.772,-5,6.06294,1,0,-0.995353,0,0,-0,0
21.871,-5,5.97675,1,0,-0.984615,0,0,-0,0
21.871,-5,5.97577,1,0,-0.984615,0,0,-0,0
21.871,-5,5.97478,1,0,-0.984615,0,0,-0,0
21.871,-5,5.9738,1,0,-0.984615,0,0,-0,0
21.871,-5,5.97282,1,0,-0.984615,0,0,-0,0
21.871,-5,5.97183,1,0,-0.984615,0,0,-0,0
21.871,-5,5.97085,1,0,-0.984615,0,0,-0,0
21.871,-5,5.96986,1,0,-0.984615,0,0,-0,0
21.871,-5,5.96888,1,0,-0.984615,0,0,-0,0
21.871,-5,5.96789,1,0,-0.984615,0,0,-0,0
21.978,-5,5.86641,1,0,-0.962685,0,0,-0,0
21.978,-5,5.86544,1,0,-0.962685,0,0,-0,0
21.978,-5,5.86448,1,0,-0.962685,0,0,-0,0
21.978,-5,5.86352,1,0,-0.962685,0,0,-0,0
21.978,-5,5.86256,1,0,-0.962685,0,0,-0,0
21.978,-5,5.86159,1,0,-0.962685,0,0,-0,0
21.978,-5,5.86063,1,0,-0.962685,0,0,-0,0
21.978,-5,5.85774,1,0,-0.962685,0,0,-0,0
21.978,-5,5.85678,1,0,-0.962685,0,0,-0,0
21.978,-5,5.85582,1,0,-0.962685,0,0,-0,0
22.079,-5,5.76157,1,0,-0.93798,0,0,-0,0
22.079,-5,5.76063,1,0,-0.93798,0,0,-0,0
22.079,-5,5.75969,1,0,-0.93798,0,0,-0,0
22.079,-5,5.75875,1,0,-0.93798,0,0,-0,0
22.079,-5,5.75782,1,0,-0.93798,0,0,-0,0
22.079,-5,5.75688,1,0,-0.93798,0,0,-0,0
22.079,-5,5.75594,1,0,-0.93798,0,0,-0,0
22.079,-5,5.755,1,0,-0.93798,0,0,-0,0
22.079,-5,5.75406,1,0,-0.93798,0,0,-0,0
22.079,-5,5.75313,1,0,-0.93798,0,0,-0,0
22.174,-5,5.6809,1,0,-0.914211,0,0,-0,0
22.174,-5,5.67999,1,0,-0.914211,0,0,-0,0
22.174,-5,5.67907,1,0,-0.914211,0,0,-0,0
22.174,-5,5.67816,1,0,-0.914211,0,0,-0,0
22.174,-5,5.67359,1,0,-0.914211,0,0,-0,0
22.174,-5,5.67268,1,0,-0.914211,0,0,-0,0
22.174,-5,5.67176,1,0,-0.914211,0,0,-0,0
22.174,-5,5.67085,1,0,-0.914211,0,0,-0,0
22.174,-5,5.66993,1,0,-0.914211,0,0,-0,0
22.174,-5,5.66902,1,0,-0.914211,0,0,-0,0
22.276,-5,5.59389,1,0,-0.872334,0,0,-0,0
22.276,-5,5.59302,1,0,-0.872334,0,0,-0,0
22.276,-5,5.59214,1,0,-0.872334,0,0,-0,0
22.276,-5,5.59127,1,0,-0.872334,0,0,-0,0
22.276,-5,5.5904,1,0,-0.872334,0,0,-0,0
22.276,-5,5.58953,1,0,-0.872334,0,0,-0,0
22.276,-5,5.58866,1,0,-0.872334,0,0,-0,0
22.276,-5,5.58778,1,0,-0.872334,0,0,-0,0
22.276,-5,5.58691,1,0,-0.872334,0,0,-0,0
22.276,-5,5.58604,1,0,-0.872334,0,0,-0,0
22.371,-5,5.50131,1,0,-0.839279,0,0,-0,0
22.371,-5,5.50047,1,0,-0.839279,0,0,-0,0
22.371,-5,5.49963,1,0,-0.839279,0,0,-0,0
22.371,-5,5.49879,1,0,-0.839279,0,0,-0,0
22.371,-5,5.49796,1,0,-0.839279,0,0,-0,0
22.371,-5,5.49712,1,0,-0.839279,0,0,-0,0
22.371,-5,5.49628,1,0,-0.839279,0,0,-0,0
22.371,-5,5.49544,1,0,-0.839279,0,0,-0,0
22.371,-5,5.4946,1,0,-0.839279,0,0,-0,0
22.371,-5,5.49376,1,0,-0.839279,0,0,-0,0
22.473,-5,5.42804,1,0,-0.782304,0,0,-0,0
22.473,-5,5.42726,1,0,-0.782304,0,0,-0,0
22.473,-5,5.42648,1,0,-0.782304,0,0,-0,0
22.473,-5,5.4257,1,0,-0.782304,0,0,-0,0
22.473,-5,5.42491,1,0,-0.782304,0,0,-0,0
22.473,-5,5.42413,1,0,-0.782304,0,0,-0,0
22.473,-5,5.42335,1,0,-0.782304,0,0,-0,0
22.473,-5,5.42257,1,0,-0.782304,0,0,-0,0
22.473,-5,5.42179,1,0,-0.782304,0,0,-0,0
22.473,-5,5.421,1,0,-0.782304,0,0,-0,0
22.576,-5,5.34325,1,0,-0.73057,0,0,-0,0
22.576,-5,5.34252,1,0,-0.73057,0,0,-0,0
22.576,-5,5.34032,1,0,-0.73057,0,0,-0,0
22.576,-5,5.33959,1,0,-0.73057,0,0,-0,0
22.576,-5,5.33886,1,0,-0.73057,0,0,-0,0
22.576,-5,5.33813,1,0,-0.73057,0,0,-0,0
22.576,-5,5.3374,1,0,-0.73057,0,0,-0,0
22.576,-5,5.33667,1,0,-0.73057,0,0,-0,0
22.576,-5,5.33594,1,0,-0.73057,0,0,-0,0
22.576,-5,5.33521,1,0,-0.73057,0,0,-0,0
22.675,-5,5.27041,1,0,-0.684819,0,0,-0,0
22.675,-5,5.26973,1,0,-0.684819,0,0,-0,0
22.675,-5,5.26904,1,0,-0.684819,0,0,-0,0
22.675,-5,5.26836,1,0,-0.684819,0,0,-0,0
22.675,-5,5.26767,1,0,-0.684819,0,0,-0,0
22.675,-5,5.26699,1,0,-0.684819,0,0,-0,0
22.675,-5,5.2663,1,0,-0.684819,0,0,-0,0
22.675,-5,5.26562,1,0,-0.684819,0,0,-0,0
22.675,-5,5.26494,1,0,-0.684819,0,0,-0,0
22.675,-5,5.26425,1,0,-0.684819,0,0,-0,0
22.772,-5,5.21441,1,0,-0.623144,0,0,-0,0
22.772,-5,5.21378,1,0,-0.623144,0,0,-0,0
22.772,-5,5.21316,1,0,-0.623144,0,0,-0,0
22.772,-5,5.21254,1,0,-0.623144,0,0,-0,0
22.772,-5,5.21191,1,0,-0.623144,0,0,-0,0
22.772,-5,5.21129,1,0,-0.623144,0,0,-0,0
22.772,-5,5.21067,1,0,-0.623144,0,0,-0,0
22.772,-5,5.21004,1,0,-0.623144,0,0,-0,0
22.772,-5,5.20942,1,0,-0.623144,0,0,-0,0
22.772,-5,5.2088,1,0,-0.623144,0,0,-0,0
22.868,-5,5.15106,1,0,-0.561962,0,0,-0,0
22.868,-5,5.15049,1,0,-0.561962,0,0,-0,0
22.868,-5,5.14993,1,0,-0.561962,0,0,-0,0
22.868,-5,5.14937,1,0,-0.561962,0,0,-0,0
22.868,-5,5.14881,1,0,-0.561962,0,0,-0,0
22.868,-5,5.14825,1,0,-0.561962,0,0,-0,0
22.868,-5,5.14768,1,0,-0.561962,0,0,-0,0
22.868,-5,5.14712,1,0,-0.561962,0,0,-0,0
22.868,-5,5.14656,1,0,-0.561962,0,0,-0,0
22.868,-5,5.146,1,0,-0.561962,0,0,-0,0
22.978,-5,5.09637,1,0,-0.491278,0,0,-0,0
22.978,-5,5.09392,1,0,-0.491278,0,0,-0,0
22.978,-5,5.09342,1,0,-0.491278,0,0,-0,0
22.978,-5,5.09293,1,0,-0.491278,0,0,-0,0
22.978,-5,5.09244,1,0,-0.491278,0,0,-0,0
22.978,-5,5.09195,1,0,-0.491278,0,0,-0,0
22.978,-5,5.09146,1,0,-0.491278,0,0,-0,0
22.978,-5,5.09097,1,0,-0.491278,0,0,-0,0
22.978,-5,5.09048,1,0,-0.491278,0,0,-0,0
22.978,-5,5.08999,1,0,-0.491278,0,0,-0,0
23.07,-5,5.05264,1,0,-0.422277,0,0,-0,0
23.07,-5,5.05221,1,0,-0.422277,0,0,-0,0
23.07,-5,5.05179,1,0,-0.422277,0,0,-0,0
23.07,-5,5.05137,1,0,-0.422277,0,0,-0,0
23.07,-5,5.05095,1,0,-0.422277,0,0,-0,0
23.07,-5,5.05053,1,0,-0.422277,0,0,-0,0
23.07,-5,5.0501,1,0,-0.422277,0,0,-0,0
23.07,-5,5.04968,1,0,-0.422277,0,0,-0,0
23.07,-5,5.04926,1,0,-0.422277,0,0,-0,0
23.07,-5,5.04884,1,0,-0.422277,0,0,-0,0
23.171,-5,5.01885,1,0,-0.362693,0,0,-0,0
23.171,-5,5.01849,1,0,-0.362693,0,0,-0,0
23.171,-5,5.01812,1,0,-0.362693,0,0,-0,0
23.171,-5,5.01776,1,0,-0.362693,0,0,-0,0
23.171,-5,5.0174,1,0,-0.362693,0,0,-0,0
23.171,-5,5.01704,1,0,-0.362693,0,0,-0,0
23.171,-5,5.01667,1,0,-0.362693,0,0,-0,0
23.171,-5,5.01631,1,0,-0.362693,0,0,-0,0
23.171,-5,5.01595,1,0,-0.362693,0,0,-0,0
23.171,-5,5.01558,1,0,-0.362693,0,0,-0,0
23.274,-5,4.98303,1,0,-0.255491,0,0,-0,0
23.274,-5,4.98278,1,0,-0.255491,0,0,-0,0
23.274,-5,4.98252,1,0,-0.255491,0,0,-0,0
23.274,-5,4.98227,1,0,-0.255491,0,0,-0,0
23.274,-5,4.98201,1,0,-0.255491,0,0,-0,0
23.274,-5,4.98176,1,0,-0.255491,0,0,-0,0
23.274,-5,4.9815,1,0,-0.255491,0,0,-0,0
23.274,-5,4.98125,1,0,-0.255491,0,0,-0,0
23.274,-5,4.98099,1,0,-0.255491,0,0,-0,0
23.274,-5,4.98073,1,0,-0.255491,0,0,-0,0
23.367,-5,4.96199,1,0,-0.194704,0,0,-0,0
23.367,-5,4.9618,1,0,-0.194704,0,0,-0,0
23.367,-5,4.9616,1,0,-0.194704,0,0,-0,0
23.367,-5,4.96141,1,0,-0.194704,0,0,-0,0
23.367,-5,4.96121,1,0,-0.194704,0,0,-0,0
23.367,-5,4.96102,1,0,-0.194704,0,0,-0,0
23.367,-5,4.96082,1,0,-0.194704,0,0,-0,0
23.367,-5,4.96063,1,0,-0.194704,0,0,-0,0
23.367,-5,4.96044,1,0,-0.194704,0,0,-0,0
23.367,-5,4.96024,1,0,-0.194704,0,0,-0,0
23.472,-5,4.94565,1,0,-0.113312,0,0,-0,0
23.472,-5,4.94554,1,0,-0.113312,0,0,-0,0
23.472,-5,4.94543,1,0,-0.113312,0,0,-0,0
23.472,-5,4.94531,1,0,-0.113312,0,0,-0,0
23.472,-5,4.9452,1,0,-0.113312,0,0,-0,0
23.472,-5,4.94509,1,0,-0.113312,0,0,-0,0
23.472,-5,4.94497,1,0,-0.113312,0,0,-0,0
23.472,-5,4.94486,1,0,-0.113312,0,0,-0,0
23.472,-5,4.94475,1,0,-0.113312,0,0,-0,0
23.472,-5,4.94463,1,0,-0.113312,0,0,-0,0
23.568,-5,4.93912,1,0,-0.0343492,0,0,-0,0
23.568,-5,4.93909,1,0,-0.0343492,0,0,-0,0
23.568,-5,4.93905,1,0,-0.0343492,0,0,-0,0
23.568,-5,4.93902,1,0,-0.0343492,0,0,-0,0
23.568,-5,4.93898,1,0,-0.0343492,0,0,-0,0
23.568,-5,4.93895,1,0,-0.0343492,0,0,-0,0
23.568,-5,4.93892,1,0,-0.0343492,0,0,-0,0
23.574,-5,4.93888,1,0,-0.0343492,0,0,-0,0
23.574,-5,4.93885,1,0,-0.0343492,0,0,-0,0
23.574,-5,4.93881,1,0,-0.0343492,0,0,-0,0
23.67,-5,4.93985,1,0,0.061605,0,0,-0,0
23.67,-5,4.93991,1,0,0.061605,0,0,-0,0
23.67,-5,4.93997,1,0,0.061605,0,0,-0,0
23.67,-5,4.94003,1,0,0.061605,0,0,-0,0
23.67,-5,4.9401,1,0,0.061605,0,0,-0,0
23.67,-5,4.94016,1,0,0.061605,0,0,-0,0
23.67,-5,4.94022,1,0,0.061605,0,0,-0,0
23.67,-5,4.94028,1,0,0.061605,0,0,-0,0
23.67,-5,4.94034,1,0,0.061605,0,0,-0,0
23.67,-5,4.9404,1,0,0.061605,0,0,-0,0
23.772,-5,4.94943,1,0,0.139587,0,0,-0,0
23.772,-5,4.94957,1,0,0.139587,0,0,-0,0
23.772,-5,4.94971,1,0,0.139587,0,0,-0,0
23.772,-5,4.94985,1,0,0.139587,0,0,-0,0
23.772,-5,4.94999,1,0,0.139587,0,0,-0,0
23.772,-5,4.95013,1,0,0.139587,0,0,-0,0
23.772,-5,4.95027,1,0,0.139587,0,0,-0,0
23.772,-5,4.95041,1,0,0.139587,0,0,-0,0
23.772,-5,4.95055,1,0,0.139587,0,0,-0,0
23.772,-5,4.95069,1,0,0.139587,0,0,-0,0
23.868,-5,4.96384,1,0,0.186938,0,0,-0,0
23.868,-5,4.96403,1,0,0.186938,0,0,-0,0
23.868,-5,4.96422,1,0,0.186938,0,0,-0,0
23.868,-5,4.9644,1,0,0.186938,0,0,-0,0
23.868,-5,4.96459,1,0,0.186938,0,0,-0,0
23.868,-5,4.96478,1,0,0.186938,0,0,-0,0
23.868,-5,4.96496,1,0,0.217492,0,0,-0,0
23.868,-5,4.96562,1,0,0.217492,0,0,-0,0
23.868,-5,4.96583,1,0,0.217492,0,0,-0,0
23.868,-5,4.96605,1,0,0.217492,0,0,-0,0
23.969,-5,4.99075,1,0,0.281775,0,0,-0,0
23.969,-5,4.99103,1,0,0.281775,0,0,-0,0
23.969,-5,4.99131,1,0,0.281775,0,0,-0,0
23.969,-5,4.9916,1,0,0.281775,0,0,-0,0
23.969,-5,4.99188,1,0,0.281775,0,0,-0,0
23.969,-5,4.99216,1,0,0.281775,0,0,-0,0
23.969,-5,4.99244,1,0,0.281775,0,0,-0,0
23.969,-5,4.99272,1,0,0.281775,0,0,-0,0
23.969,-5,4.993,1,0,0.281775,0,0,-0,0
23.969,-5,4.99329,1,0,0.281775,0,0,-0,0
24.072,-5,5.02408,1,0,0.370218,0,0,-0,0
24.072,-5,5.02445,1,0,0.370218,0,0,-0,0
24.072,-5,5.02482,1,0,0.370218,0,0,-0,0
24.072,-5,5.0252,1,0,0.370218,0,0,-0,0
24.072,-5,5.02557,1,0,0.370218,0,0,-0,0
24.072,-5,5.02594,1,0,0.370218,0,0,-0,0
24.072,-5,5.02631,1,0,0.370218,0,0,-0,0
24.072,-5,5.02668,1,0,0.370218,0,0,-0,0
24.072,-5,5.02705,1,0,0.370218,0,0,-0,0
24.072,-5,5.02742,1,0,0.370218,0,0,-0,0
24.168,-5,5.06265,1,0,0.447568,0,0,-0,0
24.168,-5,5.0631,1,0,0.447568,0,0,-0,0
24.168,-5,5.06355,1,0,0.447568,0,0,-0,0
24.168,-5,5.064,1,0,0.447568,0,0,-0,0
24.168,-5,5.06444,1,0,0.447568,0,0,-0,0
24.168,-5,5.06489,1,0,0.447568,0,0,-0,0
24.168,-5,5.06534,1,0,0.447568,0,0,-0,0
24.168,-5,5.06579,1,0,0.447568,0,0,-0,0
24.168,-5,5.06623,1,0,0.447568,0,0,-0,0
24.168,-5,5.06668,1,0,0.447568,0,0,-0,0
24.274,-5,5.11276,1,0,0.503845,0,0,-0,0
24.274,-5,5.11327,1,0,0.503845,0,0,-0,0
24.274,-5,5.11377,1,0,0.503845,0,0,-0,0
24.274,-5,5.11427,1,0,0.503845,0,0,-0,0
24.274,-5,5.11478,1,0,0.503845,0,0,-0,0
24.274,-5,5.11528,1,0,0.503845,0,0,-0,0
24.274,-5,5.11579,1,0,0.503845,0,0,-0,0
24.274,-5,5.11629,1,0,0.503845,0,0,-0,0
24.274,-5,5.11679,1,0,0.503845,0,0,-0,0
24.274,-5,5.1173,1,0,0.529189,0,0,-0,0
24.378,-5,5.16952,1,0,0.582372,0,0,-0,0
24.378,-5,5.1701,1,0,0.582372,0,0,-0,0
24.378,-5,5.17068,1,0,0.582372,0,0,-0,0
24.378,-5,5.17126,1,0,0.582372,0,0,-0,0
24.378,-5,5.17185,1,0,0.582372,0,0,-0,0
24.378,-5,5.17243,1,0,0.582372,0,0,-0,0
24.378,-5,5.17301,1,0,0.582372,0,0,-0,0
24.378,-5,5.17359,1,0,0.582372,0,0,-0,0
24.378,-5,5.17418,1,0,0.582372,0,0,-0,0
24.378,-5,5.17476,1,0,0.582372,0,0,-0,0
24.477,-5,5.22479,1,0,0.635645,0,0,-0,0
24.477,-5,5.22606,1,0,0.635645,0,0,-0,0
24.477,-5,5.22669,1,0,0.635645,0,0,-0,0
24.477,-5,5.22733,1,0,0.644863,0,0,-0,0
24.477,-5,5.22991,1,0,0.644863,0,0,-0,0
24.477,-5,5.23055,1,0,0.644863,0,0,-0,0
24.477,-5,5.2312,1,0,0.644863,0,0,-0,0
24.477,-5,5.23184,1,0,0.644863,0,0,-0,0
24.477,-5,5.23249,1,0,0.644863,0,0,-0,0
24.477,-5,5.23313,1,0,0.644863,0,0,-0,0
24.572,-5,5.28582,1,0,0.695305,0,0,-0,0
24.572,-5,5.28651,1,0,0.695305,0,0,-0,0
24.572,-5,5.28721,1,0,0.695305,0,0,-0,0
24.572,-5,5.2879,1,0,0.695305,0,0,-0,0
24.574,-5,5.28999,1,0,0.695305,0,0,-0,0
24.574,-5,5.29208,1,0,0.695305,0,0,-0,0
24.574,-5,5.29277,1,0,0.703311,0,0,-0,0
24.574,-5,5.29488,1,0,0.703311,0,0,-0,0
24.574,-5,5.29558,1,0,0.703311,0,0,-0,0
24.574,-5,5.29629,1,0,0.703311,0,0,-0,0
24.669,-5,5.36073,1,0,0.759955,0,0,-0,0
24.669,-5,5.36377,1,0,0.759955,0,0,-0,0
24.669,-5,5.36453,1,0,0.759955,0,0,-0,0
24.669,-5,5.36529,1,0,0.759955,0,0,-0,0
24.669,-5,5.36605,1,0,0.759955,0,0,-0,0
24.669,-5,5.36681,1,0,0.759955,0,0,-0,0
24.669,-5,5.36757,1,0,0.759955,0,0,-0,0
24.669,-5,5.36833,1,0,0.759955,0,0,-0,0
24.669,-5,5.36909,1,0,0.759955,0,0,-0,0
24.669,-5,5.36985,1,0,0.759955,0,0,-0,0
24.769,-5,5.4328,1,0,0.799489,0,0,-0,0
24.769,-5,5.4336,1,0,0.799489,0,0,-0,0
24.769,-5,5.43439,1,0,0.799489,0,0,-0,0
24.77,-5,5.43519,1,0,0.799489,0,0,-0,0
24.77,-5,5.43599,1,0,0.799489,0,0,-0,0
24.77,-5,5.43679,1,0,0.799489,0,0,-0,0
24.77,-5,5.43759,1,0,0.799489,0,0,-0,0
24.77,-5,5.43839,1,0,0.799489,0,0,-0,0
24.77,-5,5.43919,1,0,0.799489,0,0,-0,0
24.77,-5,5.43999,1,0,0.799489,0,0,-0,0
24.871,-5,5.525,1,0,0.843649,0,0,-0,0
24.871,-5,5.52584,1,0,0.843649,0,0,-0,0
24.871,-5,5.52669,1,0,0.843649,0,0,-0,0
24.871,-5,5.52753,1,0,0.843649,0,0,-0,0
24.871,-5,5.52837,1,0,0.843649,0,0,-0,0
24.871,-5,5.52922,1,0,0.843649,0,0,-0,0
24.871,-5,5.53006,1,0,0.843649,0,0,-0,0
24.871,-5,5.5309,1,0,0.843649,0,0,-0,0
24.871,-5,5.53175,1,0,0.843649,0,0,-0,0
24.871,-5,5.53259,1,0,0.843649,0,0,-0,0
24.974,-5,5.61536,1,0,0.886092,0,0,-0,0
24.974,-5,5.61624,1,0,0.886092,0,0,-0,0
24.974,-5,5.61713,1,0,0.886092,0,0,-0,0
24.974,-5,5.61802,1,0,0.886092,0,0,-0,0
24.974,-5,5.6189,1,0,0.886092,0,0,-0,0
24.974,-5,5.61979,1,0,0.886092,0,0,-0,0
24.974,-5,5.62068,1,0,0.886092,0,0,-0,0
24.974,-5,5.62156,1,0,0.886092,0,0,-0,0
24.974,-5,5.62245,1,0,0.886092,0,0,-0,0
24.974,-5,5.62333,1,0,0.886092,0,0,-0,0
25.074,-5,5.70607,1,0,0.924623,0,0,-0,0
25.074,-5,5.70699,1,0,0.924623,0,0,-0,0
25.074,-5,5.70792,1,0,0.924623,0,0,-0,0
25.074,-5,5.70884,1,0,0.924623,0,0,-0,0
25.074,-5,5.70977,1,0,0.924623,0,0,-0,0
25.074,-5,5.71069,1,0,0.924623,0,0,-0,0
25.074,-5,5.71162,1,0,0.924623,0,0,-0,0
25.074,-5,5.71254,1,0,0.924623,0,0,-0,0
25.074,-5,5.71346,1,0,0.924623,0,0,-0,0
25.074,-5,5.71439,1,0,0.924623,0,0,-0,0
25.171,-5,5.79688,1,0,0.948619,0,0,-0,0
25.171,-5,5.79783,1,0,0.948619,0,0,-0,0
25.171,-5,5.79878,1,0,0.948619,0,0,-0,0
25.171,-5,5.79973,1,0,0.948619,0,0,-0,0
25.171,-5,5.80068,1,0,0.948619,0,0,-0,0
25.171,-5,5.80163,1,0,0.948619,0,0,-0,0
25.171,-5,5.80258,1,0,0.948619,0,0,-0,0
25.171,-5,5.80352,1,0,0.948619,0,0,-0,0
25.171,-5,5.80447,1,0,0.948619,0,0,-0,0
25.171,-5,5.80542,1,0,0.948619,0,0,-0,0
25.274,-5,5.89499,1,0,0.970872,0,0,-0,0
25.274,-5,5.89597,1,0,0.970872,0,0,-0,0
25.274,-5,5.89694,1,0,0.970872,0,0,-0,0
25.274,-5,5.89791,1,0,0.970872,0,0,-0,0
25.274,-5,5.89888,1,0,0.970872,0,0,-0,0
25.274,-5,5.89985,1,0,0.970872,0,0,-0,0
25.274,-5,5.90082,1,0,0.970872,0,0,-0,0
25.274,-5,5.90179,1,0,0.970872,0,0,-0,0
25.274,-5,5.90276,1,0,0.970872,0,0,-0,0
25.274,-5,5.90373,1,0,0.970872,0,0,-0,0
25.375,-5,5.99404,1,0,0.988778,0,0,-0,0
25.375,-5,5.99503,1,0,0.988778,0,0,-0,0
25.375,-5,5.99601,1,0,0.988778,0,0,-0,0
25.375,-5,5.997,1,0,0.988778,0,0,-0,0
25.375,-5,5.99799,1,0,0.988778,0,0,-0,0
25.375,-5,5.99898,1,0,0.988778,0,0,-0,0
25.375,-5,5.99997,1,0,0.988778,0,0,-0,0
25.375,-5,6.00096,1,0,0.988778,0,0,-0,0
25.375,-5,6.00195,1,0,0.988778,0,0,-0,0
25.375,-5,6.00294,1,0,0.988778,0,0,-0,0
25.476,-5,6.09532,1,0,0.997441,0,0,-0,0
25.476,-5,6.09631,1,0,0.997441,0,0,-0,0
25.476,-5,6.09731,1,0,0.997441,0,0,-0,0
25.476,-5,6.09831,1,0,0.997441,0,0,-0,0
25.476,-5,6.0993,1,0,0.997441,0,0,-0,0
25.476,-5,6.1003,1,0,0.997441,0,0,-0,0
25.476,-5,6.1013,1,0,0.997441,0,0,-0,0
25.476,-5,6.1023,1,0,0.997441,0,0,-0,0
25.476,-5,6.10329,1,0,0.997441,0,0,-0,0
25.476,-5,6.10429,1,0,0.997441,0,0,-0,0
25.577,-5,6.19622,1,0,0.999941,0,0,-0,0
25.577,-5,6.19722,1,0,0.999941,0,0,-0,0
25.577,-5,6.19822,1,0,0.999941,0,0,-0,0
25.577,-5,6.19922,1,0,0.999941,0,0,-0,0
25.577,-5,6.20022,1,0,0.999941,0,0,-0,0
25.577,-5,6.20122,1,0,0.999941,0,0,-0,0
25.577,-5,6.20222,1,0,0.999941,0,0,-0,0
25.577,-5,6.20322,1,0,0.999941,0,0,-0,0
25.577,-5,6.20422,1,0,0.999941,0,0,-0,0
25.577,-5,6.20522,1,0,0.999941,0,0,-0,0
25.667,-5,6.28612,1,0,0.997319,0,0,-0,0
25.667,-5,6.28711,1,0,0.997319,0,0,-0,0
25.667,-5,6.28811,1,0,0.997319,0,0,-0,0
25.667,-5,6.28911,1,0,0.997319,0,0,-0,0
25.667,-5,6.2901,1,0,0.997319,0,0,-0,0
25.667,-5,6.2911,1,0,0.997319,0,0,-0,0
25.667,-5,6.2921,1,0,0.997319,0,0,-0,0
25.667,-5,6.2931,1,0,0.997319,0,0,-0,0
25.667,-5,6.29409,1,0,0.997319,0,0,-0,0
25.667,-5,6.29509,1,0,0.997319,0,0,-0,0
25.774,-5,6.39129,1,0,0.985577,0,0,-0,0
25.774,-5,6.39228,1,0,0.985577,0,0,-0,0
25.774,-5,6.39326,1,0,0.985577,0,0,-0,0
25.774,-5,6.39425,1,0,0.985577,0,0,-0,0
25.774,-5,6.39523,1,0,0.985577,0,0,-0,0
25.774,-5,6.39622,1,0,0.985577,0,0,-0,0
25.774,-5,6.39721,1,0,0.985577,0,0,-0,0
25.774,-5,6.39819,1,0,0.985577,0,0,-0,0
25.774,-5,6.39918,1,0,0.985577,0,0,-0,0
25.774,-5,6.40016,1,0,0.985577,0,0,-0,0
25.868,-5,6.4785,1,0,0.969295,0,0,-0,0
25.871,-5,6.47947,1,0,0.969295,0,0,-0,0
25.871,-5,6.48044,1,0,0.969295,0,0,-0,0
25.871,-5,6.48141,1,0,0.969295,0,0,-0,0
25.871,-5,6.48237,1,0,0.969295,0,0,-0,0
25.871,-5,6.48334,1,0,0.969295,0,0,-0,0
25.871,-5,6.48431,1,0,0.969295,0,0,-0,0
25.871,-5,6.48528,1,0,0.969295,0,0,-0,0
25.871,-5,6.48625,1,0,0.969295,0,0,-0,0
25.871,-5,6.48722,1,0,0.969295,0,0,-0,0
25.977,-5,6.58895,1,0,0.945507,0,0,-0,0
25.977,-5,6.58989,1,0,0.945507,0,0,-0,0
25.977,-5,6.59084,1,0,0.945507,0,0,-0,0
25.977,-5,6.59178,1,0,0.945507,0,0,-0,0
25.977,-5,6.59273,1,0,0.945507,0,0,-0,0
25.977,-5,6.59367,1,0,0.945507,0,0,-0,0
25.977,-5,6.59462,1,0,0.945507,0,0,-0,0
25.977,-5,6.59556,1,0,0.945507,0,0,-0,0
25.977,-5,6.59651,1,0,0.945507,0,0,-0,0
25.977,-5,6.59746,1,0,0.945507,0,0,-0,0
26.078,-5,6.68318,1,0,0.916463,0,0,-0,0
26.078,-5,6.6841,1,0,0.916463,0,0,-0,0
26.078,-5,6.68502,1,0,0.916463,0,0,-0,0
26.078,-5,6.68593,1,0,0.916463,0,0,-0,0
26.078,-5,6.68685,1,0,0.916463,0,0,-0,0
26.078,-5,6.68777,1,0,0.916463,0,0,-0,0
26.078,-5,6.68868,1,0,0.916463,0,0,-0,0
26.078,-5,6.6896,1,0,0.916463,0,0,-0,0
26.078,-5,6.69052,1,0,0.916463,0,0,-0,0
26.078,-5,6.69143,1,0,0.916463,0,0,-0,0
26.168,-5,6.75909,1,0,0.889728,0,0,-0,0
26.168,-5,6.75998,1,0,0.889728,0,0,-0,0
26.168,-5,6.76087,1,0,0.889728,0,0,-0,0
26.168,-5,6.76176,1,0,0.889728,0,0,-0,0
26.168,-5,6.76442,1,0,0.889728,0,0,-0,0
26.168,-5,6.76531,1,0,0.889728,0,0,-0,0
26.168,-5,6.7662,1,0,0.889728,0,0,-0,0
26.168,-5,6.76709,1,0,0.889728,0,0,-0,0
26.168,-5,6.76798,1,0,0.889728,0,0,-0,0
26.168,-5,6.76887,1,0,0.889728,0,0,-0,0
26.274,-5,6.85645,1,0,0.850402,0,0,-0,0
26.274,-5,6.8573,1,0,0.850402,0,0,-0,0
26.274,-5,6.85815,1,0,0.850402,0,0,-0,0
26.274,-5,6.859,1,0,0.850402,0,0,-0,0
26.274,-5,6.85985,1,0,0.850402,0,0,-0,0
26.274,-5,6.8607,1,0,0.850402,0,0,-0,0
26.274,-5,6.86155,1,0,0.850402,0,0,-0,0
26.274,-5,6.8624,1,0,0.850402,0,0,-0,0
26.274,-5,6.86325,1,0,0.850402,0,0,-0,0
26.274,-5,6.8641,1,0,0.833133,0,0,-0,0
26.377,-5,6.94113,1,0,0.796539,0,0,-0,0
26.377,-5,6.94192,1,0,0.796539,0,0,-0,0
26.377,-5,6.94272,1,0,0.796539,0,0,-0,0
26.377,-5,6.94352,1,0,0.796539,0,0,-0,0
26.377,-5,6.94431,1,0,0.796539,0,0,-0,0
26.377,-5,6.94511,1,0,0.796539,0,0,-0,0
26.377,-5,6.94591,1,0,0.796539,0,0,-0,0
26.377,-5,6.9467,1,0,0.796539,0,0,-0,0
26.377,-5,6.9475,1,0,0.796539,0,0,-0,0
26.377,-5,6.9483,1,0,0.796539,0,0,-0,0
26.477,-5,7.00955,1,0,0.74354,0,0,-0,0
26.477,-5,7.0103,1,0,0.74354,0,0,-0,0
26.477,-5,7.01104,1,0,0.74354,0,0,-0,0
26.477,-5,7.01178,1,0,0.74354,0,0,-0,0
26.477,-5,7.01253,1,0,0.74354,0,0,-0,0
26.477,-5,7.01327,1,0,0.74354,0,0,-0,0
26.477,-5,7.01401,1,0,0.74354,0,0,-0,0
26.477,-5,7.01476,1,0,0.74354,0,0,-0,0
26.477,-5,7.0155,1,0,0.74354,0,0,-0,0
26.477,-5,7.01625,1,0,0.74354,0,0,-0,0
26.577,-5,7.08974,1,0,0.689464,0,0,-0,0
26.577,-5,7.09043,1,0,0.689464,0,0,-0,0
26.577,-5,7.09112,1,0,0.689464,0,0,-0,0
26.577,-5,7.09181,1,0,0.689464,0,0,-0,0
26.577,-5,7.0925,1,0,0.689464,0,0,-0,0
26.577,-5,7.09319,1,0,0.689464,0,0,-0,0
26.577,-5,7.09388,1,0,0.689464,0,0,-0,0
26.577,-5,7.09457,1,0,0.689464,0,0,-0,0
26.577,-5,7.09525,1,0,0.689464,0,0,-0,0
26.577,-5,7.09594,1,0,0.689464,0,0,-0,0
26.673,-5,7.15417,1,0,0.642341,0,0,-0,0
26.673,-5,7.15481,1,0,0.642341,0,0,-0,0
26.673,-5,7.15546,1,0,0.642341,0,0,-0,0
26.673,-5,7.1561,1,0,0.642341,0,0,-0,0
26.673,-5,7.15674,1,0,0.642341,0,0,-0,0
26.673,-5,7.15738,1,0,0.642341,0,0,-0,0
26.673,-5,7.15802,1,0,0.642341,0,0,-0,0
26.673,-5,7.15867,1,0,0.642341,0,0,-0,0
26.673,-5,7.15931,1,0,0.642341,0,0,-0,0
26.673,-5,7.15995,1,0,0.642341,0,0,-0,0
26.779,-5,7.21795,1,0,0.56394,0,0,-0,0
26.779,-5,7.21851,1,0,0.56394,0,0,-0,0
26.779,-5,7.21908,1,0,0.56394,0,0,-0,0
26.779,-5,7.21964,1,0,0.56394,0,0,-0,0
26.779,-5,7.22021,1,0,0.56394,0,0,-0,0
26.779,-5,7.22077,1,0,0.56394,0,0,-0,0
26.779,-5,7.22133,1,0,0.56394,0,0,-0,0
26.779,-5,7.2219,1,0,0.56394,0,0,-0,0
26.779,-5,7.22246,1,0,0.56394,0,0,-0,0
26.779,-5,7.22303,1,0,0.56394,0,0,-0,0
26.873,-5,7.26526,1,0,0.509281,0,0,-0,0
26.873,-5,7.26576,1,0,0.509281,0,0,-0,0
26.873,-5,7.26627,1,0,0.509281,0,0,-0,0
26.873,-5,7.2678,1,0,0.509281,0,0,-0,0
26.873,-5,7.26831,1,0,0.509281,0,0,-0,0
26.873,-5,7.26882,1,0,0.509281,0,0,-0,0
26.873,-5,7.26933,1,0,0.509281,0,0,-0,0
26.873,-5,7.26984,1,0,0.509281,0,0,-0,0
26.873,-5,7.27035,1,0,0.509281,0,0,-0,0
26.873,-5,7.27086,1,0,0.509281,0,0,-0,0
26.97,-5,7.31374,1,0,0.441032,0,0,-0,0
26.97,-5,7.31419,1,0,0.441032,0,0,-0,0
26.97,-5,7.31463,1,0,0.441032,0,0,-0,0
26.97,-5,7.31507,1,0,0.441032,0,0,-0,0
26.97,-5,7.31551,1,0,0.441032,0,0,-0,0
26.97,-5,7.31595,1,0,0.441032,0,0,-0,0
26.97,-5,7.31639,1,0,0.441032,0,0,-0,0
26.97,-5,7.31683,1,0,0.441032,0,0,-0,0
26.97,-5,7.31727,1,0,0.441032,0,0,-0,0
26.97,-5,7.31771,1,0,0.441032,0,0,-0,0
27.076,-5,7.35226,1,0,0.369386,0,0,-0,0
27.076,-5,7.35337,1,0,0.369386,0,0,-0,0
27.076,-5,7.35373,1,0,0.369386,0,0,-0,0
27.076,-5,7.35558,1,0,0.369386,0,0,-0,0
27.076,-5,7.35595,1,0,0.369386,0,0,-0,0
27.076,-5,7.35632,1,0,0.369386,0,0,-0,0
27.076,-5,7.35669,1,0,0.369386,0,0,-0,0
27.076,-5,7.35706,1,0,0.369386,0,0,-0,0
27.076,-5,7.35743,1,0,0.369386,0,0,-0,0
27.076,-5,7.3578,1,0,0.369386,0,0,-0,0
27.168,-5,7.38089,1,0,0.293942,0,0,-0,0
27.168,-5,7.38118,1,0,0.293942,0,0,-0,0
27.168,-5,7.38148,1,0,0.293942,0,0,-0,0
27.168,-5,7.38177,1,0,0.293942,0,0,-0,0
27.168,-5,7.38206,1,0,0.293942,0,0,-0,0
27.168,-5,7.38236,1,0,0.293942,0,0,-0,0
27.168,-5,7.38265,1,0,0.293942,0,0,-0,0
27.168,-5,7.38295,1,0,0.293942,0,0,-0,0
27.168,-5,7.38324,1,0,0.293942,0,0,-0,0
27.168,-5,7.38353,1,0,0.293942,0,0,-0,0
27.278,-5,7.40939,1,0,0.212711,0,0,-0,0
27.278,-5,7.41003,1,0,0.212711,0,0,-0,0
27.278,-5,7.41024,1,0,0.212711,0,0,-0,0
27.278,-5,7.41045,1,0,0.212711,0,0,-0,0
27.278,-5,7.41067,1,0,0.212711,0,0,-0,0
27.278,-5,7.41088,1,0,0.212711,0,0,-0,0
27.278,-5,7.41109,1,0,0.212711,0,0,-0,0
27.278,-5,7.4113,1,0,0.212711,0,0,-0,0
27.278,-5,7.41152,1,0,0.212711,0,0,-0,0
27.278,-5,7.41237,1,0,0.212711,0,0,-0,0
27.374,-5,7.42801,1,0,0.132359,0,0,-0,0
27.374,-5,7.42814,1,0,0.132359,0,0,-0,0
27.374,-5,7.42828,1,0,0.132359,0,0,-0,0
27.374,-5,7.42841,1,0,0.132359,0,0,-0,0
27.374,-5,7.42854,1,0,0.132359,0,0,-0,0
27.374,-5,7.42867,1,0,0.132359,0,0,-0,0
27.374,-5,7.4288,1,0,0.132359,0,0,-0,0
27.374,-5,7.42894,1,0,0.132359,0,0,-0,0
27.374,-5,7.42907,1,0,0.132359,0,0,-0,0
27.374,-5,7.4292,1,0,0.132359,0,0,-0,0
27.467,-5,7.43641,1,0,0.0391386,0,0,-0,0
27.467,-5,7.43645,1,0,0.0391386,0,0,-0,0
27.467,-5,7.43649,1,0,0.0391386,0,0,-0,0
27.467,-5,7.43653,1,0,0.0391386,0,0,-0,0
27.467,-5,7.43657,1,0,0.0391386,0,0,-0,0
27.467,-5,7.43661,1,0,0.0391386,0,0,-0,0
27.467,-5,7.43665,1,0,0.0391386,0,0,-0,0
27.467,-5,7.43669,1,0,0.0391386,0,0,-0,0
27.467,-5,7.43673,1,0,0.0391386,0,0,-0,0
27.467,-5,7.43677,1,0,0.0391386,0,0,-0,0
27.569,-5,7.43754,1,0,-0.0232493,0,0,-0,0
27.569,-5,7.43752,1,0,-0.0232493,0,0,-0,0
27.569,-5,7.4375,1,0,-0.0232493,0,0,-0,0
27.569,-5,7.43747,1,0,-0.0232493,0,0,-0,0
27.569,-5,7.43745,1,0,-0.0232493,0,0,-0,0
27.569,-5,7.43743,1,0,-0.0232493,0,0,-0,0
27.569,-5,7.4374,1,0,-0.0232493,0,0,-0,0
27.569,-5,7.43738,1,0,-0.0232493,0,0,-0,0
27.569,-5,7.43736,1,0,-0.0232493,0,0,-0,0
27.569,-5,7.43733,1,0,-0.0232493,0,0,-0,0
27.681,-5,7.42947,1,0,-0.120557,0,0,-0,0
27.681,-5,7.42935,1,0,-0.120557,0,0,-0,0
27.681,-5,7.42923,1,0,-0.120557,0,0,-0,0
27.681,-5,7.42911,1,0,-0.120557,0,0,-0,0
27.681,-5,7.42899,1,0,-0.120557,0,0,-0,0
27.681,-5,7.42887,1,0,-0.120557,0,0,-0,0
27.681,-5,7.42875,1,0,-0.120557,0,0,-0,0
27.681,-5,7.42863,1,0,-0.120557,0,0,-0,0
27.681,-5,7.42851,1,0,-0.120557,0,0,-0,0
27.681,-5,7.42839,1,0,-0.120557,0,0,-0,0
27.769,-5,7.41611,1,0,-0.186945,0,0,-0,0
27.769,-5,7.41592,1,0,-0.186945,0,0,-0,0
27.769,-5,7.41573,1,0,-0.186945,0,0,-0,0
27.769,-5,7.41555,1,0,-0.186945,0,0,-0,0
27.769,-5,7.41536,1,0,-0.186945,0,0,-0,0
27.769,-5,7.41517,1,0,-0.186945,0,0,-0,0
27.769,-5,7.41499,1,0,-0.186945,0,0,-0,0
27.769,-5,7.4148,1,0,-0.186945,0,0,-0,0
27.769,-5,7.41461,1,0,-0.186945,0,0,-0,0
27.769,-5,7.41443,1,0,-0.186945,0,0,-0,0
27.869,-5,7.39403,1,0,-0.277174,0,0,-0,0
27.869,-5,7.39375,1,0,-0.277174,0,0,-0,0
27.869,-5,7.39348,1,0,-0.277174,0,0,-0,0
27.869,-5,7.3932,1,0,-0.277174,0,0,-0,0
27.869,-5,7.39292,1,0,-0.277174,0,0,-0,0
27.869,-5,7.39264,1,0,-0.277174,0,0,-0,0
27.869,-5,7.39237,1,0,-0.277174,0,0,-0,0
27.869,-5,7.39209,1,0,-0.277174,0,0,-0,0
27.869,-5,7.39181,1,0,-0.277174,0,0,-0,0
27.869,-5,7.39154,1,0,-0.277174,0,0,-0,0
27.971,-5,7.36443,1,0,-0.340315,0,0,-0,0
27.971,-5,7.36409,1,0,-0.340315,0,0,-0,0
27.971,-5,7.36375,1,0,-0.340315,0,0,-0,0
27.971,-5,7.36341,1,0,-0.340315,0,0,-0,0
27.971,-5,7.36307,1,0,-0.340315,0,0,-0,0
27.971,-5,7.36272,1,0,-0.340315,0,0,-0,0
27.971,-5,7.36238,1,0,-0.340315,0,0,-0,0
27.971,-5,7.36204,1,0,-0.340315,0,0,-0,0
27.971,-5,7.3617,1,0,-0.340315,0,0,-0,0
27.971,-5,7.36136,1,0,-0.340315,0,0,-0,0
28.072,-5,7.32432,1,0,-0.412185,0,0,-0,0
28.072,-5,7.32391,1,0,-0.412185,0,0,-0,0
28.072,-5,7.3235,1,0,-0.412185,0,0,-0,0
28.072,-5,7.32309,1,0,-0.412185,0,0,-0,0
28.072,-5,7.32268,1,0,-0.412185,0,0,-0,0
28.072,-5,7.32226,1,0,-0.412185,0,0,-0,0
28.072,-5,7.32185,1,0,-0.412185,0,0,-0,0
28.072,-5,7.32144,1,0,-0.412185,0,0,-0,0
28.072,-5,7.32103,1,0,-0.412185,0,0,-0,0
28.072,-5,7.32061,1,0,-0.412185,0,0,-0,0
28.17,-5,7.27999,1,0,-0.498313,0,0,-0,0
28.17,-5,7.27949,1,0,-0.498313,0,0,-0,0
28.17,-5,7.27899,1,0,-0.498313,0,0,-0,0
28.17,-5,7.27849,1,0,-0.498313,0,0,-0,0
28.17,-5,7.278,1,0,-0.498313,0,0,-0,0
28.17,-5,7.2775,1,0,-0.498313,0,0,-0,0
28.17,-5,7.277,1,0,-0.498313,0,0,-0,0
28.17,-5,7.2765,1,0,-0.498313,0,0,-0,0
28.17,-5,7.276,1,0,-0.498313,0,0,-0,0
28.17,-5,7.2755,1,0,-0.498313,0,0,-0,0
28.281,-5,7.22153,1,0,-0.564024,0,0,-0,0
28.281,-5,7.22097,1,0,-0.564024,0,0,-0,0
28.281,-5,7.2204,1,0,-0.564024,0,0,-0,0
28.281,-5,7.21984,1,0,-0.564024,0,0,-0,0
28.281,-5,7.21927,1,0,-0.564024,0,0,-0,0
28.281,-5,7.21871,1,0,-0.564024,0,0,-0,0
28.281,-5,7.21815,1,0,-0.564024,0,0,-0,0
28.281,-5,7.21758,1,0,-0.564024,0,0,-0,0
28.281,-5,7.21702,1,0,-0.564024,0,0,-0,0
28.281,-5,7.21645,1,0,-0.564024,0,0,-0,0
28.368,-5,7.17557,1,0,-0.615052,0,0,-0,0
28.374,-5,7.17496,1,0,-0.615052,0,0,-0,0
28.374,-5,7.17434,1,0,-0.615052,0,0,-0,0
28.374,-5,7.17373,1,0,-0.615052,0,0,-0,0
28.374,-5,7.17311,1,0,-0.615052,0,0,-0,0
28.374,-5,7.1725,1,0,-0.615052,0,0,-0,0
28.374,-5,7.17188,1,0,-0.615052,0,0,-0,0
28.374,-5,7.17127,1,0,-0.615052,0,0,-0,0
28.374,-5,7.17065,1,0,-0.615052,0,0,-0,0
28.374,-5,7.17004,1,0,-0.615052,0,0,-0,0
28.473,-5,7.10978,1,0,-0.675507,0,0,-0,0
28.473,-5,7.10843,1,0,-0.675507,0,0,-0,0
28.473,-5,7.10776,1,0,-0.675507,0,0,-0,0
28.473,-5,7.10708,1,0,-0.675507,0,0,-0,0
28.473,-5,7.10641,1,0,-0.675507,0,0,-0,0
28.473,-5,7.10573,1,0,-0.675507,0,0,-0,0
28.473,-5,7.10235,1,0,-0.675507,0,0,-0,0
28.473,-5,7.10168,1,0,-0.675507,0,0,-0,0
28.473,-5,7.101,1,0,-0.675507,0,0,-0,0
28.473,-5,7.10033,1,0,-0.675507,0,0,-0,0
28.567,-5,7.04233,1,0,-0.723495,0,0,-0,0
28.567,-5,7.0416,1,0,-0.723495,0,0,-0,0
28.567,-5,7.04088,1,0,-0.723495,0,0,-0,0
28.567,-5,7.04016,1,0,-0.723495,0,0,-0,0
28.567,-5,7.03943,1,0,-0.723495,0,0,-0,0
28.567,-5,7.03871,1,0,-0.723495,0,0,-0,0
28.572,-5,7.03799,1,0,-0.723495,0,0,-0,0
28.572,-5,7.03726,1,0,-0.723495,0,0,-0,0
28.572,-5,7.03654,1,0,-0.723495,0,0,-0,0
28.572,-5,7.03582,1,0,-0.723495,0,0,-0,0
28.672,-5,6.95968,1,0,-0.777356,0,0,-0,0
28.672,-5,6.95494,1,0,-0.797567,0,0,-0,0
28.672,-5,6.95414,1,0,-0.797567,0,0,-0,0
28.672,-5,6.95334,1,0,-0.797567,0,0,-0,0
28.672,-5,6.95255,1,0,-0.797567,0,0,-0,0
28.672,-5,6.95175,1,0,-0.797567,0,0,-0,0
28.672,-5,6.95095,1,0,-0.797567,0,0,-0,0
28.672,-5,6.95015,1,0,-0.797567,0,0,-0,0
28.672,-5,6.94936,1,0,-0.797567,0,0,-0,0
28.672,-5,6.94856,1,0,-0.797567,0,0,-0,0
28.774,-5,6.8803,1,0,-0.832304,0,0,-0,0
28.774,-5,6.87946,1,0,-0.832304,0,0,-0,0
28.774,-5,6.87863,1,0,-0.832304,0,0,-0,0
28.774,-5,6.8778,1,0,-0.832304,0,0,-0,0
28.774,-5,6.87697,1,0,-0.832304,0,0,-0,0
28.774,-5,6.87614,1,0,-0.832304,0,0,-0,0
28.777,-5,6.8753,1,0,-0.832304,0,0,-0,0
28.777,-5,6.87447,1,0,-0.832304,0,0,-0,0
28.777,-5,6.87364,1,0,-0.832304,0,0,-0,0
28.777,-5,6.87281,1,0,-0.832304,0,0,-0,0
28.873,-5,6.78706,1,0,-0.874329,0,0,-0,0
28.873,-5,6.78618,1,0,-0.874329,0,0,-0,0
28.873,-5,6.78531,1,0,-0.874329,0,0,-0,0
28.873,-5,6.78443,1,0,-0.874329,0,0,-0,0
28.873,-5,6.78356,1,0,-0.874329,0,0,-0,0
28.873,-5,6.78268,1,0,-0.874329,0,0,-0,0
28.873,-5,6.78181,1,0,-0.874329,0,0,-0,0
28.873,-5,6.78094,1,0,-0.874329,0,0,-0,0
28.873,-5,6.78006,1,0,-0.874329,0,0,-0,0
28.873,-5,6.77919,1,0,-0.874329,0,0,-0,0
28.969,-5,6.70201,1,0,-0.916504,0,0,-0,0
28.969,-5,6.70109,1,0,-0.916504,0,0,-0,0
28.969,-5,6.70018,1,0,-0.916504,0,0,-0,0
28.969,-5,6.69926,1,0,-0.916504,0,0,-0,0
28.969,-5,6.69834,1,0,-0.916504,0,0,-0,0
28.969,-5,6.69743,1,0,-0.916504,0,0,-0,0
28.969,-5,6.69651,1,0,-0.916504,0,0,-0,0
28.969,-5,6.69559,1,0,-0.916504,0,0,-0,0
28.969,-5,6.69468,1,0,-0.916504,0,0,-0,0
28.969,-5,6.69376,1,0,-0.916504,0,0,-0,0
29.07,-5,6.61589,1,0,-0.941836,0,0,-0,0
29.07,-5,6.61495,1,0,-0.941836,0,0,-0,0
29.071,-5,6.61401,1,0,-0.941836,0,0,-0,0
29.071,-5,6.61306,1,0,-0.941836,0,0,-0,0
29.071,-5,6.61212,1,0,-0.941836,0,0,-0,0
29.071,-5,6.61118,1,0,-0.941836,0,0,-0,0
29.071,-5,6.61024,1,0,-0.941836,0,0,-0,0
29.071,-5,6.6093,1,0,-0.941836,0,0,-0,0
29.071,-5,6.60835,1,0,-0.941836,0,0,-0,0
29.071,-5,6.60741,1,0,-0.941836,0,0,-0,0
29.176,-5,6.52154,1,0,-0.965055,0,0,-0,0
29.176,-5,6.52058,1,0,-0.965055,0,0,-0,0
29.176,-5,6.51961,1,0,-0.965055,0,0,-0,0
29.176,-5,6.51865,1,0,-0.965055,0,0,-0,0
29.176,-5,6.51768,1,0,-0.965055,0,0,-0,0
29.176,-5,6.51672,1,0,-0.965055,0,0,-0,0
29.177,-5,6.51575,1,0,-0.965055,0,0,-0,0
29.177,-5,6.51479,1,0,-0.965055,0,0,-0,0
29.177,-5,6.51382,1,0,-0.965055,0,0,-0,0
29.177,-5,6.51286,1,0,-0.965055,0,0,-0,0
29.269,-5,6.4154,1,0,-0.982762,0,0,-0,0
29.269,-5,6.41441,1,0,-0.982762,0,0,-0,0
29.269,-5,6.41343,1,0,-0.982762,0,0,-0,0
29.269,-5,6.41245,1,0,-0.982762,0,0,-0,0
29.269,-5,6.41146,1,0,-0.982762,0,0,-0,0
29.269,-5,6.41048,1,0,-0.982762,0,0,-0,0
29.269,-5,6.4095,1,0,-0.982762,0,0,-0,0
29.269,-5,6.40852,1,0,-0.982762,0,0,-0,0
29.269,-5,6.40753,1,0,-0.982762,0,0,-0,0
29.269,-5,6.40655,1,0,-0.982762,0,0,-0,0
29.371,-5,6.31442,1,0,-0.994223,0,0,-0,0
29.371,-5,6.31343,1,0,-0.994223,0,0,-0,0
29.371,-5,6.31244,1,0,-0.994223,0,0,-0,0
29.371,-5,6.31144,1,0,-0.994223,0,0,-0,0
29.371,-5,6.31045,1,0,-0.994223,0,0,-0,0
29.371,-5,6.30945,1,0,-0.994223,0,0,-0,0
29.371,-5,6.30846,1,0,-0.994223,0,0,-0,0
29.371,-5,6.30746,1,0,-0.994223,0,0,-0,0
29.371,-5,6.30647,1,0,-0.994223,0,0,-0,0
29.371,-5,6.30548,1,0,-0.994223,0,0,-0,0
29.479,-5,6.22263,1,0,-0.999924,0,0,-0,0
29.479,-5,6.22163,1,0,-0.999924,0,0,-0,0
29.479,-5,6.22063,1,0,-0.999924,0,0,-0,0
29.479,-5,6.21963,1,0,-0.999924,0,0,-0,0
29.479,-5,6.21863,1,0,-0.999924,0,0,-0,0
29.479,-5,6.21763,1,0,-0.999924,0,0,-0,0
29.479,-5,6.21663,1,0,-0.999924,0,0,-0,0
29.479,-5,6.21563,1,0,-0.999924,0,0,-0,0
29.479,-5,6.21463,1,0,-0.999924,0,0,-0,0
29.479,-5,6.21363,1,0,-0.999924,0,0,-0,0
29.572,-5,6.12667,1,0,-0.998625,0,0,-0,0
29.572,-5,6.12567,1,0,-0.998625,0,0,-0,0
29.572,-5,6.12467,1,0,-0.998625,0,0,-0,0
29.572,-5,6.12367,1,0,-0.998625,0,0,-0,0
29.572,-5,6.12267,1,0,-0.998625,0,0,-0,0
29.572,-5,6.12168,1,0,-0.998625,0,0,-0,0
29.572,-5,6.12068,1,0,-0.998625,0,0,-0,0
29.572,-5,6.11968,1,0,-0.998625,0,0,-0,0
29.572,-5,6.11868,1,0,-0.998625,0,0,-0,0
29.572,-5,6.11768,1,0,-0.998625,0,0,-0,0
29.674,-5,6.02017,1,0,-0.991241,0,0,-0,0
29.674,-5,6.01918,1,0,-0.991241,0,0,-0,0
29.674,-5,6.01819,1,0,-0.991241,0,0,-0,0
29.674,-5,6.0172,1,0,-0.991241,0,0,-0,0
29.674,-5,6.01224,1,0,-0.991241,0,0,-0,0
29.674,-5,6.01125,1,0,-0.991241,0,0,-0,0
29.674,-5,6.01026,1,0,-0.991241,0,0,-0,0
29.674,-5,6.00927,1,0,-0.991241,0,0,-0,0
