timestamp,x,y,z,vx,vy,vz,roll,pitch,yaw
14.667,-9.00013,-9.00044,0.182466,-0.0038792,-0.00151681,0.00412511,-1.87642e-06,3.31809e-06,-0.020842
14.677,-9.00014,-9.00044,0.182466,0.00371531,0.00134617,0.00360972,2.48917e-06,-1.39391e-06,-0.0208571
14.687,-9.00013,-9.00044,0.182466,-0.00387925,-0.00151672,0.00412512,-1.87638e-06,3.3181e-06,-0.0208721
14.697,-9.00014,-9.00044,0.182466,0.00371536,0.00134608,0.00360972,2.48917e-06,-1.39387e-06,-0.0208871
14.707,-9.00013,-9.00044,0.182466,-0.00387931,-0.00151663,0.00412514,-1.87635e-06,3.31811e-06,-0.0209021
14.717,-9.00014,-9.00044,0.182466,0.00371541,0.00134599,0.00360972,2.48917e-06,-1.39382e-06,-0.0209171
14.727,-9.00014,-9.00044,0.182466,-0.00387936,-0.00151653,0.00412515,-1.87632e-06,3.31812e-06,-0.0209321
14.737,-9.00014,-9.00044,0.182466,0.00371546,0.0013459,0.00360973,2.48916e-06,-1.39378e-06,-0.0209471
14.747,-9.00014,-9.00044,0.182466,-0.00387942,-0.00151644,0.00412516,-1.87628e-06,3.31812e-06,-0.0209621
14.777,-9.00014,-9.00045,0.182466,0.00371555,0.00134572,0.00360974,2.48916e-06,-1.39369e-06,-0.0210072
14.787,-9.00014,-9.00045,0.182466,-0.00387953,-0.00151625,0.00412519,-1.87621e-06,3.31814e-06,-0.0210221
14.797,-9.00014,-9.00045,0.182466,0.0037156,0.00134563,0.00360974,2.48916e-06,-1.39365e-06,-0.0210372
14.807,-9.00014,-9.00045,0.182466,-0.00387959,-0.00151616,0.0041252,-1.87618e-06,3.31814e-06,-0.0210521
14.817,-9.00014,-9.00045,0.182466,0.00371565,0.00134554,0.00360974,2.48916e-06,-1.3936e-06,-0.0210672
14.827,-9.00014,-9.00045,0.182466,-0.00387964,-0.00151607,0.00412522,-1.87614e-06,3.31815e-06,-0.0210821
14.837,-9.00014,-9.00045,0.182466,0.0037157,0.00134544,0.00360975,2.48915e-06,-1.39356e-06,-0.0210972
14.847,-9.00014,-9.00045,0.182466,-0.0038797,-0.00151598,0.00412523,-1.87611e-06,3.31816e-06,-0.0211121
14.857,-9.00014,-9.00045,0.182466,0.00371575,0.00134535,0.00360975,2.48915e-06,-1.39351e-06,-0.0211272
14.867,-9.00014,-9.00045,0.182466,-0.00387975,-0.00151588,0.00412525,-1.87607e-06,3.31817e-06,-0.0211421
14.877,-9.00014,-9.00045,0.182466,0.0037158,0.00134526,0.00360976,2.48915e-06,-1.39347e-06,-0.0211572
14.887,-9.00014,-9.00045,0.182466,-0.00387981,-0.00151579,0.00412526,-1.87604e-06,3.31817e-06,-0.0211721
14.897,-9.00014,-9.00045,0.182466,0.00371584,0.00134517,0.00360976,2.48915e-06,-1.39342e-06,-0.0211872
14.907,-9.00014,-9.00045,0.182466,-0.00387987,-0.0015157,0.00412527,-1.87601e-06,3.31818e-06,-0.0212022
14.917,-9.00014,-9.00045,0.182466,0.00371589,0.00134508,0.00360976,2.48915e-06,-1.39338e-06,-0.0212172
14.927,-9.00014,-9.00045,0.182466,-0.00387992,-0.00151561,0.00412529,-1.87597e-06,3.31819e-06,-0.0212322
14.937,-9.00014,-9.00045,0.182466,0.00371594,0.00134499,0.00360977,2.48914e-06,-1.39334e-06,-0.0212472
14.947,-9.00014,-9.00045,0.182466,-0.00387998,-0.00151551,0.0041253,-1.87594e-06,3.31819e-06,-0.0212622
14.957,-9.00014,-9.00045,0.182466,0.00371599,0.0013449,0.00360977,2.48914e-06,-1.39329e-06,-0.0212772
14.967,-9.00014,-9.00045,0.182466,-0.00388003,-0.00151542,0.00412531,-1.8759e-06,3.3182e-06,-0.0212922
14.977,-9.00014,-9.00045,0.182466,0.00371604,0.0013448,0.00360977,2.48914e-06,-1.39325e-06,-0.0213072
14.987,-9.00014,-9.00045,0.182466,-0.00388009,-0.00151533,0.00412533,-1.87587e-06,3.31821e-06,-0.0213222
14.997,-9.00014,-9.00045,0.182466,0.00371609,0.00134471,0.00360978,2.48914e-06,-1.3932e-06,-0.0213372
15.007,-9.00014,-9.00045,0.182466,-0.00388014,-0.00151524,0.00412534,-1.87583e-06,3.31822e-06,-0.0213522
15.017,-9.00014,-9.00045,0.182466,0.00371614,0.00134462,0.00360978,2.48914e-06,-1.39316e-06,-0.0213673
15.027,-9.00014,-9.00045,0.182466,-0.0038802,-0.00151514,0.00412535,-1.8758e-06,3.31822e-06,-0.0213822
15.037,-9.00014,-9.00045,0.182466,0.00371619,0.00134453,0.00360979,2.48913e-06,-1.39311e-06,-0.0213973
15.067,-9.00014,-9.00045,0.182466,-0.00388031,-0.00151496,0.00412538,-1.87573e-06,3.31824e-06,-0.0214422
15.077,-9.00014,-9.00046,0.182466,0.00371628,0.00134435,0.00360979,2.48913e-06,-1.39302e-06,-0.0214573
15.087,-9.00014,-9.00045,0.182466,-0.00388037,-0.00151486,0.00412539,-1.8757e-06,3.31824e-06,-0.0214722
15.097,-9.00014,-9.00046,0.182466,0.00371633,0.00134426,0.0036098,2.48913e-06,-1.39298e-06,-0.0214873
15.107,-9.00014,-9.00046,0.182466,-0.00388042,-0.00151477,0.00412541,-1.87566e-06,3.31825e-06,-0.0215022
15.117,-9.00014,-9.00046,0.182466,0.00371638,0.00134416,0.0036098,2.48913e-06,-1.39294e-06,-0.0215173
15.127,-9.00014,-9.00046,0.182466,-0.00388048,-0.00151468,0.00412542,-1.87563e-06,3.31826e-06,-0.0215322
15.137,-9.00014,-9.00046,0.182466,0.00371643,0.00134407,0.00360981,2.48912e-06,-1.39289e-06,-0.0215473
15.147,-9.00014,-9.00046,0.182466,-0.00388053,-0.00151459,0.00412544,-1.87559e-06,3.31827e-06,-0.0215622
15.157,-9.00014,-9.00046,0.182466,0.00371648,0.00134398,0.00360981,2.48912e-06,-1.39285e-06,-0.0215773
15.167,-9.00014,-9.00046,0.182466,-0.00388059,-0.00151449,0.00412545,-1.87556e-06,3.31827e-06,-0.0215922
15.177,-9.00014,-9.00046,0.182466,0.00371653,0.00134389,0.00360981,2.48912e-06,-1.3928e-06,-0.0216073
15.187,-9.00014,-9.00046,0.182466,-0.00388064,-0.0015144,0.00412546,-1.87553e-06,3.31828e-06,-0.0216222
15.197,-9.00014,-9.00046,0.182466,0.00371657,0.0013438,0.00360982,2.48912e-06,-1.39276e-06,-0.0216373
15.207,-9.00014,-9.00046,0.182466,-0.0038807,-0.00151431,0.00412548,-1.87549e-06,3.31829e-06,-0.0216522
15.217,-9.00014,-9.00046,0.182466,0.00371662,0.00134371,0.00360982,2.48911e-06,-1.39272e-06,-0.0216673
15.227,-9.00014,-9.00046,0.182466,-0.00388075,-0.00151422,0.00412549,-1.87546e-06,3.31829e-06,-0.0216822
15.237,-9.00014,-9.00046,0.182466,0.00371667,0.00134362,0.00360982,2.48911e-06,-1.39267e-06,-0.0216973
15.247,-9.00014,-9.00046,0.182466,-0.00388081,-0.00151412,0.0041255,-1.87542e-06,3.3183e-06,-0.0217122
15.257,-9.00014,-9.00046,0.182466,0.00371672,0.00134353,0.00360983,2.48911e-06,-1.39263e-06,-0.0217273
15.277,-9.00014,-9.00046,0.182466,0.00371677,0.00134343,0.00360983,2.48911e-06,-1.39258e-06,-0.0217573
15.287,-9.00014,-9.00046,0.182466,-0.00388092,-0.00151394,0.00412553,-1.87535e-06,3.31831e-06,-0.0217722
15.297,-9.00014,-9.00046,0.182466,0.00371682,0.00134334,0.00360984,2.48911e-06,-1.39254e-06,-0.0217873
15.307,-9.00014,-9.00046,0.182466,-0.00388098,-0.00151384,0.00412554,-1.87532e-06,3.31832e-06,-0.0218022
15.317,-9.00014,-9.00046,0.182466,0.00371687,0.00134325,0.00360984,2.4891e-06,-1.39249e-06,-0.0218173
15.327,-9.00014,-9.00046,0.182466,-0.00388103,-0.00151375,0.00412556,-1.87529e-06,3.31833e-06,-0.0218323
15.337,-9.00014,-9.00046,0.182466,0.00371692,0.00134316,0.00360984,2.4891e-06,-1.39245e-06,-0.0218473
15.347,-9.00014,-9.00046,0.182466,-0.00388109,-0.00151366,0.00412557,-1.87525e-06,3.31833e-06,-0.0218623
15.357,-9.00014,-9.00046,0.182466,0.00371696,0.00134307,0.00360985,2.4891e-06,-1.39241e-06,-0.0218773
15.367,-9.00014,-9.00046,0.182466,-0.00388114,-0.00151357,0.00412558,-1.87522e-06,3.31834e-06,-0.0218923
15.377,-9.00014,-9.00047,0.182466,0.00371701,0.00134298,0.00360985,2.4891e-06,-1.39236e-06,-0.0219073
15.387,-9.00014,-9.00046,0.182466,-0.0038812,-0.00151347,0.0041256,-1.87518e-06,3.31835e-06,-0.0219223
15.397,-9.00014,-9.00047,0.182466,0.00371706,0.00134289,0.00360986,2.4891e-06,-1.39232e-06,-0.0219373
15.407,-9.00014,-9.00047,0.182466,-0.00388125,-0.00151338,0.00412561,-1.87515e-06,3.31836e-06,-0.0219523
15.417,-9.00014,-9.00047,0.182466,0.00371711,0.00134279,0.00360986,2.48909e-06,-1.39227e-06,-0.0219673
15.427,-9.00014,-9.00047,0.182466,-0.00388131,-0.00151329,0.00412563,-1.87511e-06,3.31836e-06,-0.0219823
15.437,-9.00014,-9.00047,0.182466,0.00371716,0.0013427,0.00360986,2.48909e-06,-1.39223e-06,-0.0219973
15.447,-9.00014,-9.00047,0.182466,-0.00388137,-0.00151319,0.00412564,-1.87508e-06,3.31837e-06,-0.0220123
15.457,-9.00014,-9.00047,0.182466,0.00371721,0.00134261,0.00360987,2.48909e-06,-1.39219e-06,-0.0220273
15.467,-9.00014,-9.00047,0.182466,-0.00388142,-0.0015131,0.00412565,-1.87505e-06,3.31838e-06,-0.0220423
15.477,-9.00014,-9.00047,0.182466,0.00371726,0.00134252,0.00360987,2.48909e-06,-1.39214e-06,-0.0220573
15.487,-9.00014,-9.00047,0.182466,-0.00388148,-0.00151301,0.00412567,-1.87501e-06,3.31838e-06,-0.0220723
15.497,-9.00014,-9.00047,0.182466,0.0037173,0.00134243,0.00360988,2.48908e-06,-1.3921e-06,-0.0220873
15.507,-9.00014,-9.00047,0.182466,-0.00388153,-0.00151292,0.00412568,-1.87498e-06,3.31839e-06,-0.0221023
15.517,-9.00014,-9.00047,0.182466,0.00371735,0.00134234,0.00360988,2.48908e-06,-1.39205e-06,-0.0221173
15.527,-9.00014,-9.00047,0.182466,-0.00388159,-0.00151282,0.00412569,-1.87494e-06,3.3184e-06,-0.0221323
15.537,-9.00014,-9.00047,0.182466,0.0037174,0.00134225,0.00360988,2.48908e-06,-1.39201e-06,-0.0221473
15.557,-9.00014,-9.00047,0.182466,0.00371745,0.00134215,0.00360989,2.48908e-06,-1.39197e-06,-0.0221773
15.567,-9.00014,-9.00047,0.182466,-0.0038817,-0.00151264,0.00412572,-1.87487e-06,3.31841e-06,-0.0221923
15.577,-9.00014,-9.00047,0.182466,0.0037175,0.00134206,0.00360989,2.48908e-06,-1.39192e-06,-0.0222073
15.587,-9.00014,-9.00047,0.182466,-0.00388175,-0.00151255,0.00412573,-1.87484e-06,3.31842e-06,-0.0222223
15.597,-9.00015,-9.00047,0.182466,0.00371755,0.00134197,0.0036099,2.48907e-06,-1.39188e-06,-0.0222373
15.607,-9.00014,-9.00047,0.182466,-0.00388181,-0.00151245,0.00412575,-1.87481e-06,3.31842e-06,-0.0222523
15.617,-9.00015,-9.00047,0.182466,0.0037176,0.00134188,0.0036099,2.48907e-06,-1.39183e-06,-0.0222673
15.627,-9.00014,-9.00047,0.182466,-0.00388186,-0.00151236,0.00412576,-1.87477e-06,3.31843e-06,-0.0222823
15.637,-9.00015,-9.00047,0.182466,0.00371764,0.00134179,0.0036099,2.48907e-06,-1.39179e-06,-0.0222973
15.647,-9.00014,-9.00047,0.182466,-0.00388192,-0.00151227,0.00412577,-1.87474e-06,3.31844e-06,-0.0223123
15.657,-9.00015,-9.00047,0.182466,0.00371769,0.0013417,0.00360991,2.48907e-06,-1.39175e-06,-0.0223273
15.667,-9.00014,-9.00047,0.182466,-0.00388198,-0.00151217,0.00412579,-1.8747e-06,3.31844e-06,-0.0223423
15.677,-9.00015,-9.00048,0.182466,0.00371774,0.00134161,0.00360991,2.48906e-06,-1.3917e-06,-0.0223573
15.687,-9.00014,-9.00047,0.182466,-0.00388203,-0.00151208,0.0041258,-1.87467e-06,3.31845e-06,-0.0223723
15.697,-9.00015,-9.00048,0.182466,0.00371779,0.00134152,0.00360992,2.48906e-06,-1.39166e-06,-0.0223873
15.707,-9.00015,-9.00048,0.182466,-0.00388209,-0.00151199,0.00412581,-1.87463e-06,3.31846e-06,-0.0224022
15.717,-9.00015,-9.00048,0.182466,0.00371784,0.00134142,0.00360992,2.48906e-06,-1.39161e-06,-0.0224173
15.727,-9.00015,-9.00048,0.182466,-0.00388214,-0.0015119,0.00412583,-1.8746e-06,3.31846e-06,-0.0224322
15.737,-9.00015,-9.00048,0.182466,0.00371789,0.00134133,0.00360992,2.48906e-06,-1.39157e-06,-0.0224473
15.747,-9.00015,-9.00048,0.182466,-0.0038822,-0.0015118,0.00412584,-1.87457e-06,3.31847e-06,-0.0224622
15.767,-9.00015,-9.00048,0.182466,-0.00388225,-0.00151171,0.00412585,-1.87453e-06,3.31848e-06,-0.0224922
15.777,-9.00015,-9.00048,0.182466,0.00371798,0.00134115,0.00360993,2.48905e-06,-1.39148e-06,-0.0225073
15.787,-9.00015,-9.00048,0.182466,-0.00388231,-0.00151162,0.00412587,-1.8745e-06,3.31848e-06,-0.0225222
15.797,-9.00015,-9.00048,0.182466,0.00371803,0.00134106,0.00360994,2.48905e-06,-1.39144e-06,-0.0225373
15.807,-9.00015,-9.00048,0.182466,-0.00388236,-0.00151152,0.00412588,-1.87446e-06,3.31849e-06,-0.0225522
15.817,-9.00015,-9.00048,0.182466,0.00371808,0.00134097,0.00360994,2.48905e-06,-1.39139e-06,-0.0225673
15.827,-9.00015,-9.00048,0.182466,-0.00388242,-0.00151143,0.0041259,-1.87443e-06,3.3185e-06,-0.0225822
15.837,-9.00015,-9.00048,0.182466,0.00371813,0.00134088,0.00360994,2.48905e-06,-1.39135e-06,-0.0225973
15.847,-9.00015,-9.00048,0.182466,-0.00388247,-0.00151134,0.00412591,-1.8744e-06,3.3185e-06,-0.0226122
15.857,-9.00015,-9.00048,0.182466,0.00371818,0.00134078,0.00360995,2.48904e-06,-1.39131e-06,-0.0226273
15.867,-9.00015,-9.00048,0.182466,-0.00388253,-0.00151125,0.00412592,-1.87436e-06,3.31851e-06,-0.0226422
15.877,-9.00015,-9.00048,0.182466,0.00371823,0.00134069,0.00360995,2.48904e-06,-1.39126e-06,-0.0226573
15.887,-9.00015,-9.00048,0.182466,-0.00388259,-0.00151115,0.00412594,-1.87433e-06,3.31852e-06,-0.0226722
15.897,-9.00015,-9.00048,0.182466,0.00371828,0.0013406,0.00360996,2.48904e-06,-1.39122e-06,-0.0226873
15.907,-9.00015,-9.00048,0.182466,-0.00388264,-0.00151106,0.00412595,-1.87429e-06,3.31852e-06,-0.0227022
15.917,-9.00015,-9.00048,0.182466,0.00371833,0.00134051,0.00360996,2.48904e-06,-1.39118e-06,-0.0227173
15.927,-9.00015,-9.00048,0.182466,-0.0038827,-0.00151097,0.00412596,-1.87426e-06,3.31853e-06,-0.0227322
15.937,-9.00015,-9.00048,0.182466,0.00371837,0.00134042,0.00360996,2.48904e-06,-1.39113e-06,-0.0227473
15.967,-9.00015,-9.00048,0.182466,-0.00388281,-0.00151078,0.00412599,-1.87419e-06,3.31854e-06,-0.0227922
15.977,-9.00015,-9.00049,0.182466,0.00371847,0.00134024,0.00360997,2.48903e-06,-1.39104e-06,-0.0228073
15.987,-9.00015,-9.00048,0.182466,-0.00388286,-0.00151069,0.004126,-1.87416e-06,3.31855e-06,-0.0228222
15.997,-9.00015,-9.00049,0.182466,0.00371852,0.00134014,0.00360998,2.48903e-06,-1.391e-06,-0.0228373
16.007,-9.00015,-9.00049,0.182466,-0.00388292,-0.0015106,0.00412602,-1.87412e-06,3.31856e-06,-0.0228522
16.017,-9.00015,-9.00049,0.182466,0.00371857,0.00134005,0.00360998,2.48903e-06,-1.39096e-06,-0.0228672
16.027,-9.00015,-9.00049,0.182466,-0.00388297,-0.0015105,0.00412603,-1.87409e-06,3.31856e-06,-0.0228822
16.037,-9.00015,-9.00049,0.182466,0.00371862,0.00133996,0.00360998,2.48902e-06,-1.39091e-06,-0.0228972
16.047,-9.00015,-9.00049,0.182466,-0.00388303,-0.00151041,0.00412604,-1.87405e-06,3.31857e-06,-0.0229122
16.057,-9.00015,-9.00049,0.182466,0.00371867,0.00133987,0.00360999,2.48902e-06,-1.39087e-06,-0.0229272
16.067,-9.00015,-9.00049,0.182466,-0.00388308,-0.00151032,0.00412606,-1.87402e-06,3.31858e-06,-0.0229422
16.077,-9.00015,-9.00049,0.182466,0.00371871,0.00133978,0.00360999,2.48902e-06,-1.39083e-06,-0.0229572
16.087,-9.00015,-9.00049,0.182466,-0.00388314,-0.00151022,0.00412607,-1.87399e-06,3.31858e-06,-0.0229722
16.097,-9.00015,-9.00049,0.182466,0.00371876,0.00133969,0.00361,2.48902e-06,-1.39078e-06,-0.0229872
16.107,-9.00015,-9.00049,0.182466,-0.0038832,-0.00151013,0.00412608,-1.87395e-06,3.31859e-06,-0.0230022
16.117,-9.00015,-9.00049,0.182466,0.00371881,0.0013396,0.00361,2.48901e-06,-1.39074e-06,-0.0230172
16.127,-9.00015,-9.00049,0.182466,-0.00388325,-0.00151004,0.0041261,-1.87392e-06,3.3186e-06,-0.0230321
16.137,-9.00015,-9.00049,0.182466,0.00371886,0.00133951,0.00361,2.48901e-06,-1.39069e-06,-0.0230472
16.147,-9.00015,-9.00049,0.182466,-0.00388331,-0.00150995,0.00412611,-1.87388e-06,3.3186e-06,-0.0230621
16.177,-9.00015,-9.00049,0.182466,0.00371896,0.00133932,0.00361001,2.48901e-06,-1.39061e-06,-0.0231072
16.187,-9.00015,-9.00049,0.182466,-0.00388342,-0.00150976,0.00412614,-1.87382e-06,3.31861e-06,-0.0231221
16.197,-9.00015,-9.00049,0.182466,0.00371901,0.00133923,0.00361002,2.48901e-06,-1.39056e-06,-0.0231372
16.207,-9.00015,-9.00049,0.182466,-0.00388347,-0.00150967,0.00412615,-1.87378e-06,3.31862e-06,-0.0231521
16.217,-9.00015,-9.00049,0.182466,0.00371905,0.00133914,0.00361002,2.489e-06,-1.39052e-06,-0.0231672
16.227,-9.00015,-9.00049,0.182466,-0.00388353,-0.00150957,0.00412616,-1.87375e-06,3.31863e-06,-0.0231821
16.237,-9.00015,-9.00049,0.182466,0.0037191,0.00133905,0.00361002,2.489e-06,-1.39048e-06,-0.0231972
16.247,-9.00015,-9.00049,0.182466,-0.00388358,-0.00150948,0.00412618,-1.87371e-06,3.31863e-06,-0.0232121
16.257,-9.00015,-9.00049,0.182466,0.00371915,0.00133896,0.00361003,2.489e-06,-1.39043e-06,-0.0232272
16.267,-9.00015,-9.00049,0.182466,-0.00388364,-0.00150939,0.00412619,-1.87368e-06,3.31864e-06,-0.0232421
16.277,-9.00015,-9.0005,0.182466,0.0037192,0.00133887,0.00361003,2.489e-06,-1.39039e-06,-0.0232572
16.287,-9.00015,-9.00049,0.182466,-0.00388369,-0.0015093,0.0041262,-1.87365e-06,3.31865e-06,-0.0232721
16.297,-9.00015,-9.0005,0.182466,0.00371925,0.00133877,0.00361004,2.48899e-06,-1.39035e-06,-0.0232871
16.307,-9.00015,-9.0005,0.182466,-0.00388375,-0.0015092,0.00412622,-1.87361e-06,3.31865e-06,-0.0233021
16.317,-9.00015,-9.0005,0.182466,0.0037193,0.00133868,0.00361004,2.48899e-06,-1.3903e-06,-0.0233171
16.327,-9.00015,-9.0005,0.182466,-0.0038838,-0.00150911,0.00412623,-1.87358e-06,3.31866e-06,-0.0233321
16.337,-9.00015,-9.0005,0.182466,0.00371935,0.00133859,0.00361004,2.48899e-06,-1.39026e-06,-0.0233471
16.347,-9.00015,-9.0005,0.182466,-0.00388386,-0.00150902,0.00412624,-1.87354e-06,3.31867e-06,-0.0233621
16.357,-9.00015,-9.0005,0.182466,0.00371939,0.0013385,0.00361005,2.48899e-06,-1.39021e-06,-0.0233771
16.367,-9.00015,-9.0005,0.182466,-0.00388392,-0.00150892,0.00412626,-1.87351e-06,3.31867e-06,-0.023392
16.377,-9.00015,-9.0005,0.182466,0.00371944,0.00133841,0.00361005,2.48898e-06,-1.39017e-06,-0.0234071
16.387,-9.00015,-9.0005,0.182466,-0.00388397,-0.00150883,0.00412627,-1.87347e-06,3.31868e-06,-0.023422
16.397,-9.00015,-9.0005,0.182466,0.00371949,0.00133832,0.00361006,2.48898e-06,-1.39013e-06,-0.0234371
16.407,-9.00015,-9.0005,0.182466,-0.00388403,-0.00150874,0.00412628,-1.87344e-06,3.31868e-06,-0.023452
16.417,-9.00015,-9.0005,0.182466,0.00371954,0.00133823,0.00361006,2.48898e-06,-1.39008e-06,-0.0234671
16.427,-9.00015,-9.0005,0.182466,-0.00388408,-0.00150865,0.0041263,-1.87341e-06,3.31869e-06,-0.023482
16.437,-9.00015,-9.0005,0.182466,0.00371959,0.00133813,0.00361006,2.48898e-06,-1.39004e-06,-0.0234971
16.457,-9.00015,-9.0005,0.182466,0.00371964,0.00133804,0.00361007,2.48897e-06,-1.39e-06,-0.0235271
16.467,-9.00015,-9.0005,0.182466,-0.00388419,-0.00150846,0.00412633,-1.87334e-06,3.3187e-06,-0.023542
16.477,-9.00015,-9.0005,0.182466,0.00371968,0.00133795,0.00361007,2.48897e-06,-1.38995e-06,-0.023557
16.487,-9.00015,-9.0005,0.182466,-0.00388425,-0.00150837,0.00412634,-1.8733e-06,3.31871e-06,-0.023572
16.497,-9.00015,-9.0005,0.182466,0.00371973,0.00133786,0.00361008,2.48897e-06,-1.38991e-06,-0.023587
16.507,-9.00015,-9.0005,0.182466,-0.0038843,-0.00150827,0.00412635,-1.87327e-06,3.31872e-06,-0.023602
16.517,-9.00015,-9.0005,0.182466,0.00371978,0.00133777,0.00361008,2.48897e-06,-1.38987e-06,-0.023617
16.527,-9.00015,-9.0005,0.182466,-0.00388436,-0.00150818,0.00412637,-1.87324e-06,3.31872e-06,-0.023632
16.537,-9.00015,-9.0005,0.182466,0.00371983,0.00133768,0.00361008,2.48897e-06,-1.38982e-06,-0.023647
16.547,-9.00015,-9.0005,0.182466,-0.00388441,-0.00150809,0.00412638,-1.8732e-06,3.31873e-06,-0.0236619
16.557,-9.00015,-9.0005,0.182466,0.00371988,0.00133759,0.00361009,2.48896e-06,-1.38978e-06,-0.023677
16.567,-9.00015,-9.0005,0.182466,-0.00388447,-0.001508,0.00412639,-1.87317e-06,3.31873e-06,-0.0236919
16.577,-9.00016,-9.0005,0.182466,0.00371993,0.0013375,0.00361009,2.48896e-06,-1.38974e-06,-0.023707
16.587,-9.00015,-9.0005,0.182466,-0.00388452,-0.0015079,0.00412641,-1.87313e-06,3.31874e-06,-0.0237219
16.597,-9.00016,-9.00051,0.182466,0.00371998,0.0013374,0.0036101,2.48896e-06,-1.38969e-06,-0.023737
16.607,-9.00015,-9.00051,0.182466,-0.00388458,-0.00150781,0.00412642,-1.8731e-06,3.31875e-06,-0.0237519
16.617,-9.00016,-9.00051,0.182466,0.00372002,0.00133731,0.0036101,2.48896e-06,-1.38965e-06,-0.023767
16.627,-9.00015,-9.00051,0.182466,-0.00388464,-0.00150772,0.00412643,-1.87307e-06,3.31875e-06,-0.0237819
16.657,-9.00016,-9.00051,0.182466,0.00372012,0.00133713,0.00361011,2.48895e-06,-1.38956e-06,-0.0238269
16.667,-9.00016,-9.00051,0.182466,-0.00388475,-0.00150753,0.00412646,-1.873e-06,3.31877e-06,-0.0238419
16.677,-9.00016,-9.00051,0.182466,0.00372017,0.00133704,0.00361011,2.48895e-06,-1.38952e-06,-0.0238569
16.687,-9.00016,-9.00051,0.182466,-0.0038848,-0.00150744,0.00412647,-1.87297e-06,3.31877e-06,-0.0238719
16.697,-9.00016,-9.00051,0.182466,0.00372022,0.00133695,0.00361012,2.48895e-06,-1.38948e-06,-0.0238869
16.707,-9.00016,-9.00051,0.182466,-0.00388486,-0.00150735,0.00412649,-1.87293e-06,3.31878e-06,-0.0239018
16.717,-9.00016,-9.00051,0.182466,0.00372027,0.00133686,0.00361012,2.48894e-06,-1.38943e-06,-0.0239169
16.727,-9.00016,-9.00051,0.182466,-0.00388491,-0.00150725,0.0041265,-1.8729e-06,3.31878e-06,-0.0239318
16.737,-9.00016,-9.00051,0.182466,0.00372032,0.00133676,0.00361013,2.48894e-06,-1.38939e-06,-0.0239469
16.747,-9.00016,-9.00051,0.182466,-0.00388497,-0.00150716,0.00412651,-1.87286e-06,3.31879e-06,-0.0239618
16.757,-9.00016,-9.00051,0.182466,0.00372036,0.00133667,0.00361013,2.48894e-06,-1.38935e-06,-0.0239769
16.767,-9.00016,-9.00051,0.182466,-0.00388502,-0.00150707,0.00412653,-1.87283e-06,3.3188e-06,-0.0239918
16.777,-9.00016,-9.00051,0.182466,0.00372041,0.00133658,0.00361013,2.48894e-06,-1.3893e-06,-0.0240068
16.787,-9.00016,-9.00051,0.182466,-0.00388508,-0.00150697,0.00412654,-1.8728e-06,3.3188e-06,-0.0240218
16.797,-9.00016,-9.00051,0.182466,0.00372046,0.00133649,0.00361014,2.48893e-06,-1.38926e-06,-0.0240368
16.807,-9.00016,-9.00051,0.182466,-0.00388513,-0.00150688,0.00412655,-1.87276e-06,3.31881e-06,-0.0240518
16.817,-9.00016,-9.00051,0.182466,0.00372051,0.0013364,0.00361014,2.48893e-06,-1.38922e-06,-0.0240668
16.827,-9.00016,-9.00051,0.182466,-0.00388519,-0.00150679,0.00412657,-1.87273e-06,3.31881e-06,-0.0240817
16.837,-9.00016,-9.00051,0.182466,0.00372056,0.00133631,0.00361015,2.48893e-06,-1.38917e-06,-0.0240968
16.867,-9.00016,-9.00051,0.182466,-0.0038853,-0.0015066,0.00412659,-1.87266e-06,3.31883e-06,-0.0241417
16.877,-9.00016,-9.00051,0.182466,0.00372066,0.00133612,0.00361015,2.48892e-06,-1.38909e-06,-0.0241568
16.887,-9.00016,-9.00051,0.182466,-0.00388535,-0.00150651,0.00412661,-1.87263e-06,3.31883e-06,-0.0241717
16.897,-9.00016,-9.00052,0.182466,0.0037207,0.00133603,0.00361016,2.48892e-06,-1.38904e-06,-0.0241868
16.907,-9.00016,-9.00052,0.182466,-0.00388541,-0.00150642,0.00412662,-1.87259e-06,3.31884e-06,-0.0242017
16.917,-9.00016,-9.00052,0.182466,0.00372075,0.00133594,0.00361016,2.48892e-06,-1.389e-06,-0.0242167
16.927,-9.00016,-9.00052,0.182466,-0.00388546,-0.00150632,0.00412663,-1.87256e-06,3.31884e-06,-0.0242317
16.937,-9.00016,-9.00052,0.182466,0.0037208,0.00133585,0.00361017,2.48892e-06,-1.38896e-06,-0.0242467
16.947,-9.00016,-9.00052,0.182466,-0.00388552,-0.00150623,0.00412665,-1.87252e-06,3.31885e-06,-0.0242616
16.957,-9.00016,-9.00052,0.182466,0.00372085,0.00133576,0.00361017,2.48891e-06,-1.38891e-06,-0.0242767
16.977,-9.00016,-9.00052,0.182466,0.0037209,0.00133567,0.00361017,2.48891e-06,-1.38887e-06,-0.0243067
16.987,-9.00016,-9.00052,0.182466,-0.00388563,-0.00150604,0.00412667,-1.87246e-06,3.31886e-06,-0.0243216
16.997,-9.00015,-9.00051,0.182522,0.00307981,0.000909,0.0297899,-2.73076e-05,7.6297e-05,-0.0243351
17.007,-9.00011,-9.0005,0.18337,0.00311081,0.00092018,0.12985,-0.000109973,0.000256552,-0.0243436
17.017,-9.00008,-9.0005,0.185219,0.0031805,0.000952149,0.229894,-0.000256224,0.00047064,-0.0243516
17.027,-9.00005,-9.00049,0.188068,0.00329556,0.00101703,0.329907,-0.000457698,0.000708532,-0.0243592
17.037,-9.00002,-9.00047,0.191917,0.00345969,0.00112454,0.429876,-0.000703692,0.000958263,-0.0243666
17.047,-8.99998,-9.00046,0.196765,0.00367475,0.00128264,0.529788,-0.000986541,0.00121306,-0.0243736
17.057,-8.99994,-9.00045,0.202612,0.00394142,0.00149785,0.629629,-0.00129967,0.00146834,-0.0243803
17.067,-8.9999,-9.00043,0.209455,0.00425802,0.00177404,0.728475,-0.00163738,0.00172103,-0.0243868
17.077,-8.99986,-9.00041,0.217269,0.00461866,0.0021103,0.823709,-0.00199549,0.00197028,-0.0243931
17.087,-8.99981,-9.00039,0.226008,0.0050187,0.00250538,0.914257,-0.00237107,0.00221663,-0.0243991
17.097,-8.99976,-9.00036,0.235629,0.00545588,0.00295926,1.00034,-0.00276158,0.00246077,-0.024405
17.107,-8.9997,-9.00033,0.246087,0.00592802,0.00347129,1.08211,-0.00316469,0.00270322,-0.0244106
17.117,-8.99964,-9.00029,0.257338,0.00643298,0.0040402,1.15966,-0.00357825,0.0029441,-0.0244161
17.127,-8.99957,-9.00025,0.269344,0.00696913,0.00466484,1.23321,-0.00400032,0.00318358,-0.0244215
17.137,-8.9995,-9.0002,0.282063,0.00753502,0.00534386,1.30297,-0.00442915,0.00342193,-0.0244267
17.147,-8.99942,-9.00014,0.29546,0.00812879,0.00607503,1.36901,-0.00486315,0.00365937,-0.0244318
17.167,-8.99924,-9,0.324134,0.00939161,0.0076824,1.48977,-0.00574168,0.00413168,-0.0244416
17.177,-8.99915,-8.99992,0.339339,0.010059,0.00855558,1.54503,-0.00618382,0.00436679,-0.0244464
17.187,-8.99904,-8.99983,0.355079,0.0107495,0.00947305,1.59719,-0.00662633,0.00460137,-0.0244511
17.197,-8.99893,-8.99973,0.371325,0.0114624,0.0104333,1.64646,-0.00706803,0.00483547,-0.0244558
17.207,-8.99881,-8.99962,0.388047,0.0121944,0.0114307,1.69249,-0.00750791,0.00506908,-0.0244604
17.217,-8.99868,-8.9995,0.405206,0.0129388,0.012455,1.7343,-0.00794606,0.00530201,-0.0244649
17.227,-8.99855,-8.99937,0.422762,0.0136962,0.0135063,1.77243,-0.00838238,0.00553433,-0.0244693
17.237,-8.99841,-8.99923,0.440681,0.0144673,0.0145848,1.80731,-0.0088163,0.00576615,-0.0244738
17.247,-8.99826,-8.99908,0.458933,0.0152529,0.0156908,1.83935,-0.00924705,0.00599756,-0.0244782
17.257,-8.9981,-8.99891,0.477491,0.0160536,0.0168241,1.86884,-0.00967367,0.00622857,-0.0244825
17.267,-8.99794,-8.99874,0.496332,0.0168697,0.0179848,1.89608,-0.0100951,0.00645907,-0.0244868
17.277,-8.99777,-8.99855,0.515433,0.0177016,0.0191723,1.92128,-0.0105104,0.00668884,-0.0244911
17.287,-8.99758,-8.99835,0.534776,0.0185497,0.0203865,1.94466,-0.0109185,0.0069176,-0.0244954
17.297,-8.99739,-8.99814,0.554344,0.0194143,0.0216268,1.96639,-0.0113182,0.007145,-0.0244996
17.307,-8.99719,-8.99792,0.574119,0.0202899,0.0228844,1.98592,-0.0117089,0.00737063,-0.0245038
17.317,-8.99699,-8.99768,0.594069,0.0211646,0.0241405,2.00185,-0.0120914,0.00759424,-0.024508
17.327,-8.99677,-8.99744,0.614162,0.0220414,0.0253991,2.01481,-0.0124665,0.00781574,-0.0245121
17.347,-8.99631,-8.9969,0.654671,0.0238109,0.0279371,2.03374,-0.0131924,0.00825223,-0.0245202
17.357,-8.99607,-8.99662,0.675047,0.0247076,0.0292218,2.0405,-0.0135416,0.00846689,-0.0245242
17.367,-8.99582,-8.99632,0.695482,0.0256106,0.0305137,2.04544,-0.0138804,0.00867879,-0.0245281
17.377,-8.99556,-8.996,0.715952,0.0265127,0.0318014,2.04788,-0.0142086,0.00888749,-0.024532
17.387,-8.99529,-8.99568,0.736436,0.0274169,0.0330895,2.04833,-0.0145259,0.00909266,-0.0245357
17.397,-8.99501,-8.99534,0.756914,0.028326,0.0343818,2.04719,-0.0148317,0.00929405,-0.0245395
17.407,-8.99472,-8.99499,0.777373,0.029237,0.0356735,2.04428,-0.015125,0.00949133,-0.0245431
17.417,-8.99442,-8.99463,0.797787,0.0301402,0.0369499,2.03874,-0.0154057,0.00968377,-0.0245466
17.427,-8.99411,-8.99425,0.818135,0.0310401,0.0382177,2.03116,-0.0156734,0.00987095,-0.0245501
17.437,-8.9938,-8.99386,0.838398,0.0319404,0.0394826,2.02205,-0.0159275,0.0100527,-0.0245534
17.457,-8.99314,-8.99304,0.878607,0.0337304,0.0419852,1.99851,-0.0163913,0.0103981,-0.0245597
17.467,-8.9928,-8.99262,0.898514,0.0346175,0.043219,1.98407,-0.0165998,0.0105605,-0.0245626
17.477,-8.99245,-8.99218,0.918269,0.0355046,0.0444492,1.96848,-0.0167916,0.0107156,-0.0245653
17.487,-8.99209,-8.99173,0.937865,0.0363934,0.0456779,1.95198,-0.0169662,0.0108633,-0.0245679
17.497,-8.99172,-8.99126,0.957289,0.0372827,0.0469036,1.93455,-0.0171227,0.0110031,-0.0245703
17.507,-8.99134,-8.99079,0.976535,0.0381717,0.0481246,1.9162,-0.0172604,0.0111347,-0.0245725
17.517,-8.99095,-8.9903,0.99559,0.0390539,0.0493314,1.89647,-0.0173783,0.011257,-0.0245746
17.527,-8.99056,-8.9898,1.01444,0.0399335,0.0505304,1.87581,-0.0174758,0.0113693,-0.0245763
17.537,-8.99016,-8.98929,1.03308,0.040814,0.0517262,1.85459,-0.0175523,0.0114716,-0.0245779
17.547,-8.98974,-8.98876,1.05151,0.0416978,0.0529223,1.8331,-0.0176074,0.0115636,-0.0245792
17.567,-8.98889,-8.98768,1.08772,0.0434776,0.0553178,1.78979,-0.0176527,0.0117169,-0.0245811
17.577,-8.98845,-8.98712,1.10549,0.0443598,0.0564966,1.76697,-0.0176411,0.0117764,-0.0245816
17.587,-8.988,-8.98655,1.12304,0.0452373,0.0576636,1.74354,-0.0176055,0.011823,-0.0245819
17.597,-8.98754,-8.98597,1.14034,0.0461083,0.058816,1.71942,-0.0175457,0.0118566,-0.0245818
17.607,-8.98708,-8.98537,1.1574,0.0469651,0.0599429,1.69408,-0.0174598,0.0118753,-0.0245814
17.617,-8.9866,-8.98477,1.17419,0.0478122,0.0610509,1.66798,-0.0173471,0.0118782,-0.0245807
17.627,-8.98612,-8.98415,1.19073,0.048646,0.0621349,1.64091,-0.0172074,0.0118654,-0.0245797
17.637,-8.98563,-8.98352,1.20698,0.049454,0.0631779,1.61197,-0.0170363,0.011833,-0.0245782
17.647,-8.98513,-8.98289,1.22293,0.0502426,0.0641893,1.58177,-0.016832,0.0117793,-0.0245763
17.657,-8.98462,-8.98224,1.23858,0.0510168,0.0651759,1.55084,-0.0165948,0.0117047,-0.0245741
17.667,-8.98411,-8.98158,1.25392,0.0517803,0.0661426,1.51959,-0.0163261,0.0116105,-0.0245714
17.677,-8.98359,-8.98092,1.26894,0.0525331,0.0670894,1.48811,-0.0160275,0.0114979,-0.0245685
17.687,-8.98306,-8.98024,1.28365,0.0532713,0.0680109,1.45617,-0.0156981,0.011366,-0.0245652
17.697,-8.98252,-8.97955,1.29803,0.053998,0.068911,1.42414,-0.0153384,0.0112152,-0.0245616
17.707,-8.98198,-8.97886,1.3121,0.054711,0.0697865,1.39189,-0.015015,0.0111108,-0.0245587
17.717,-8.98143,-8.97816,1.32583,0.0554281,0.0706503,1.35876,-0.0155382,0.0118558,-0.0245687
17.727,-8.98087,-8.97745,1.33924,0.0562283,0.0715765,1.32521,-0.0173585,0.0138944,-0.0246006
17.737,-8.9803,-8.97672,1.3523,0.0572049,0.0726525,1.2916,-0.020508,0.0172548,-0.0246615
17.747,-8.97972,-8.97599,1.36504,0.0584474,0.0739621,1.25822,-0.0248267,0.0217747,-0.0247586
17.757,-8.97913,-8.97524,1.37744,0.0600281,0.075573,1.22506,-0.0300788,0.0272168,-0.0248983
17.767,-8.97852,-8.97448,1.3895,0.0619952,0.0775301,1.19184,-0.0360199,0.0333355,-0.0250839
17.777,-8.97789,-8.97369,1.40124,0.0643925,0.0798763,1.15874,-0.0424258,0.0399062,-0.0253159
17.787,-8.97723,-8.97288,1.41265,0.0672469,0.0826383,1.12577,-0.0491064,0.0467392,-0.0255914
17.797,-8.97654,-8.97203,1.42372,0.0705842,0.0858426,1.09316,-0.0559071,0.0536803,-0.0259052
17.807,-8.97581,-8.97115,1.43448,0.0744125,0.0894985,1.06091,-0.0627056,0.0606087,-0.0262509
17.817,-8.97504,-8.97024,1.44491,0.0787184,0.0935944,1.02878,-0.069414,0.0674376,-0.0266215
17.827,-8.97423,-8.96928,1.45502,0.0835104,0.0981403,0.997006,-0.0759649,0.0741013,-0.02701
17.857,-8.97147,-8.96609,1.48347,0.100648,0.114344,0.903083,-0.0942565,0.0927033,-0.0282189
17.867,-8.97043,-8.96491,1.49233,0.107235,0.12056,0.872255,-0.0998224,0.098369,-0.0286189
17.877,-8.96932,-8.96367,1.50089,0.114206,0.127134,0.841398,-0.105108,0.103755,-0.0290108
17.887,-8.96813,-8.96236,1.50913,0.121566,0.134072,0.810754,-0.110109,0.108859,-0.0293915
17.897,-8.96688,-8.96098,1.51707,0.129319,0.14138,0.780511,-0.11482,0.113677,-0.0297577
17.907,-8.96554,-8.95953,1.52471,0.137445,0.149036,0.750627,-0.119237,0.118204,-0.0301066
17.917,-8.96412,-8.95799,1.53205,0.145891,0.156991,0.720813,-0.123368,0.122451,-0.030437
17.927,-8.96261,-8.95638,1.5391,0.154666,0.165254,0.691282,-0.127218,0.126423,-0.0307474
17.937,-8.96101,-8.95468,1.54585,0.163774,0.173829,0.662206,-0.130785,0.130119,-0.0310358
17.947,-8.95932,-8.95289,1.55232,0.173198,0.182699,0.633571,-0.134067,0.133538,-0.0313003
17.977,-8.95367,-8.94698,1.57001,0.203121,0.210842,0.549762,-0.142273,0.142197,-0.0319435
17.987,-8.95158,-8.94482,1.57536,0.213626,0.220713,0.522786,-0.144461,0.144552,-0.0321034
17.997,-8.94939,-8.94255,1.58044,0.224314,0.230752,0.495939,-0.14639,0.146655,-0.032236
18.007,-8.94709,-8.94019,1.58526,0.235196,0.240966,0.469408,-0.148066,0.148511,-0.0323411
18.017,-8.94467,-8.93772,1.58981,0.246277,0.251361,0.44334,-0.149488,0.150122,-0.0324178
18.027,-8.94215,-8.93515,1.5941,0.257538,0.261919,0.417728,-0.150653,0.151481,-0.0324646
18.037,-8.93951,-8.93247,1.59814,0.268935,0.272595,0.392402,-0.151569,0.152598,-0.0324817
18.047,-8.93676,-8.92969,1.60192,0.280473,0.283395,0.36751,-0.152237,0.153471,-0.0324687
18.057,-8.93389,-8.9268,1.60546,0.292137,0.294305,0.343085,-0.152655,0.1541,-0.0324245
18.067,-8.9309,-8.92379,1.60876,0.303896,0.305293,0.319042,-0.152826,0.154485,-0.0323489
18.077,-8.9278,-8.92068,1.61182,0.315749,0.31636,0.295501,-0.152749,0.154626,-0.0322414
18.087,-8.92458,-8.91745,1.61465,0.327676,0.327485,0.272463,-0.152422,0.154519,-0.032101
18.097,-8.92123,-8.91412,1.61725,0.339636,0.338631,0.249797,-0.151851,0.154168,-0.0319287
18.107,-8.91777,-8.91067,1.61962,0.351628,0.349794,0.22762,-0.151041,0.153576,-0.0317252
18.117,-8.91419,-8.90711,1.62178,0.363643,0.360969,0.206021,-0.149994,0.152744,-0.0314912
18.127,-8.91049,-8.90344,1.62373,0.375661,0.372136,0.184998,-0.148714,0.151672,-0.0312279
18.137,-8.90666,-8.89966,1.62546,0.387647,0.383261,0.164457,-0.147212,0.150371,-0.030938
18.147,-8.90272,-8.89576,1.627,0.399591,0.394336,0.144478,-0.145497,0.148846,-0.0306239
18.157,-8.89866,-8.89176,1.62833,0.411482,0.405353,0.125119,-0.14358,0.147107,-0.0302883
18.167,-8.89448,-8.88765,1.62948,0.423307,0.416297,0.106424,-0.141468,0.145159,-0.0299337
18.177,-8.89018,-8.88342,1.63045,0.435041,0.427148,0.0883659,-0.139173,0.143011,-0.0295632
18.187,-8.88577,-8.87909,1.63123,0.44665,0.437874,0.070846,-0.13671,0.140679,-0.0291805
18.197,-8.88124,-8.87466,1.63185,0.458123,0.448465,0.0539097,-0.134094,0.138174,-0.028789
18.207,-8.87659,-8.87011,1.6323,0.469446,0.458909,0.0375737,-0.131338,0.13551,-0.0283919
18.217,-8.87184,-8.86547,1.63258,0.480599,0.46919,0.0218265,-0.128455,0.132699,-0.0279924
18.227,-8.86697,-8.86072,1.63272,0.49157,0.479297,0.00668859,-0.125458,0.129753,-0.0275932
18.237,-8.862,-8.85587,1.6327,0.502347,0.489218,-0.00782903,-0.12236,0.126684,-0.0271971
18.247,-8.85692,-8.85093,1.63255,0.512914,0.498942,-0.0217229,-0.119171,0.123504,-0.0268064
18.257,-8.85173,-8.84588,1.63226,0.523256,0.508454,-0.0350326,-0.115904,0.120224,-0.0264234
18.267,-8.84644,-8.84075,1.63184,0.533349,0.517734,-0.0478438,-0.112573,0.11686,-0.0260505
18.277,-8.84105,-8.83552,1.63129,0.543185,0.526775,-0.060143,-0.10919,0.113423,-0.0256894
18.287,-8.83557,-8.8302,1.63062,0.552757,0.535571,-0.071924,-0.105766,0.109926,-0.0253418
18.297,-8.82999,-8.8248,1.62984,0.562055,0.544116,-0.0831868,-0.102309,0.106379,-0.0250087
18.307,-8.82432,-8.81931,1.62895,0.571073,0.552402,-0.0939361,-0.098829,0.102791,-0.0246911
18.317,-8.81856,-8.81375,1.62795,0.579803,0.560425,-0.10418,-0.0953336,0.0991721,-0.0243897
18.327,-8.81272,-8.8081,1.62686,0.588239,0.56818,-0.113926,-0.0918306,0.0955308,-0.024105
18.337,-8.80679,-8.80238,1.62567,0.596377,0.575662,-0.123175,-0.0883269,0.0918754,-0.0238374
18.347,-8.80078,-8.79658,1.62439,0.60421,0.582868,-0.131946,-0.0848293,0.088214,-0.0235872
18.357,-8.7947,-8.79071,1.62302,0.611734,0.589793,-0.14026,-0.0813442,0.0845542,-0.0233542
18.367,-8.78854,-8.78478,1.62158,0.618946,0.596436,-0.148135,-0.0778775,0.0809036,-0.0231386
18.377,-8.78231,-8.77878,1.62005,0.625843,0.602794,-0.155573,-0.0744349,0.0772689,-0.02294
18.387,-8.77602,-8.77272,1.61846,0.632427,0.60887,-0.162555,-0.0710205,0.0736557,-0.0227582
18.407,-8.76324,-8.76042,1.61507,0.644646,0.620166,-0.175267,-0.0642943,0.0665167,-0.0224431
18.417,-8.75676,-8.75419,1.61329,0.65028,0.625386,-0.18103,-0.0609908,0.0630016,-0.0223089
18.427,-8.75023,-8.74791,1.61145,0.655598,0.630322,-0.186431,-0.0577322,0.0595295,-0.0221895
18.467,-8.72362,-8.72233,1.6036,0.673769,0.647283,-0.204169,-0.0452035,0.0461488,-0.0218469
18.477,-8.71686,-8.71584,1.60154,0.67755,0.65084,-0.207701,-0.04221,0.0429472,-0.0217917
18.487,-8.71006,-8.70931,1.59945,0.681031,0.654128,-0.210943,-0.0392773,0.03981,-0.0217472
18.497,-8.70323,-8.70275,1.59732,0.684219,0.657152,-0.213873,-0.0364075,0.0367402,-0.0217129
18.507,-8.69638,-8.69617,1.59517,0.687121,0.65992,-0.216403,-0.0336017,0.0337392,-0.021688
18.517,-8.68949,-8.68955,1.59299,0.689741,0.662435,-0.218596,-0.0308612,0.030809,-0.0216718
18.527,-8.68258,-8.68292,1.59079,0.692082,0.6647,-0.220502,-0.0281879,0.027952,-0.0216637
18.537,-8.67565,-8.67626,1.58858,0.69415,0.666718,-0.222165,-0.0255835,0.0251705,-0.021663
18.547,-8.66869,-8.66958,1.58635,0.695952,0.668497,-0.223572,-0.0230497,0.0224666,-0.0216692
18.557,-8.66173,-8.66289,1.58411,0.697495,0.670044,-0.224653,-0.0205873,0.0198412,-0.0216816
18.567,-8.65474,-8.65618,1.58186,0.698785,0.671362,-0.225466,-0.0181971,0.0172958,-0.0216995
18.577,-8.64775,-8.64946,1.5796,0.699829,0.672459,-0.226044,-0.0158804,0.0148316,-0.0217226
18.587,-8.64075,-8.64273,1.57734,0.700634,0.673339,-0.226389,-0.0136379,0.0124498,-0.0217501
18.597,-8.63374,-8.63599,1.57507,0.701207,0.674009,-0.226547,-0.0114706,0.0101515,-0.0217815
18.607,-8.62672,-8.62925,1.57281,0.701555,0.674476,-0.226494,-0.00937918,0.00793756,-0.0218165
18.617,-8.61971,-8.6225,1.57054,0.701689,0.674748,-0.226131,-0.00736395,0.00580828,-0.0218544
18.627,-8.61269,-8.61576,1.56828,0.701614,0.67483,-0.225526,-0.00542533,0.00376412,-0.0218948
18.637,-8.60568,-8.60901,1.56603,0.701338,0.67473,-0.224735,-0.00356382,0.00180564,-0.0219373
18.647,-8.59867,-8.60226,1.56379,0.70087,0.674454,-0.223802,-0.00177978,-6.67328e-05,-0.0219815
18.657,-8.59166,-8.59552,1.56156,0.700218,0.67401,-0.222716,-7.3468e-05,-0.00185275,-0.022027
18.667,-8.58466,-8.58878,1.55934,0.69939,0.673404,-0.2214,0.00155499,-0.00355237,-0.0220735
18.677,-8.57767,-8.58205,1.55713,0.698395,0.672645,-0.219914,0.00310552,-0.00516562,-0.0221205
18.687,-8.5707,-8.57533,1.55494,0.697241,0.671739,-0.21828,0.00457817,-0.0066926,-0.0221678
18.697,-8.56373,-8.56862,1.55277,0.695937,0.670693,-0.216485,0.005973,-0.00813352,-0.0222151
18.707,-8.55678,-8.56192,1.55062,0.694491,0.669517,-0.214577,0.00729023,-0.00948872,-0.0222621
18.717,-8.54984,-8.55523,1.54848,0.692913,0.668217,-0.212596,0.00853022,-0.0107587,-0.0223086
18.727,-8.54292,-8.54856,1.54637,0.691211,0.6668,-0.210539,0.00969344,-0.011944,-0.0223543
18.737,-8.53602,-8.5419,1.54427,0.689393,0.665275,-0.20836,0.0107802,-0.0130452,-0.0223991
18.747,-8.52914,-8.53525,1.5422,0.687468,0.663648,-0.206104,0.0117911,-0.0140631,-0.0224427
18.757,-8.52227,-8.52863,1.54015,0.685446,0.661928,-0.203804,0.0127267,-0.0149984,-0.022485
18.767,-8.51543,-8.52202,1.53813,0.683334,0.660122,-0.201489,0.0135879,-0.0158522,-0.0225259
18.777,-8.50861,-8.51543,1.53612,0.681143,0.658239,-0.19918,0.0143756,-0.0166256,-0.0225652
18.787,-8.50181,-8.50885,1.53415,0.678878,0.656283,-0.196815,0.0150906,-0.0173197,-0.0226029
18.797,-8.49503,-8.5023,1.53219,0.676545,0.654261,-0.194239,0.0157332,-0.0179351,-0.0226388
18.807,-8.48828,-8.49577,1.53026,0.674154,0.65218,-0.191516,0.0163038,-0.0184725,-0.0226729
18.817,-8.48155,-8.48926,1.52836,0.671713,0.650048,-0.188699,0.0168035,-0.0189333,-0.022705
18.827,-8.47485,-8.48277,1.52649,0.669231,0.647872,-0.18583,0.0172336,-0.0193189,-0.0227353
18.837,-8.46817,-8.47631,1.52465,0.666716,0.645661,-0.182943,0.0175953,-0.019631,-0.0227636
18.847,-8.46152,-8.46986,1.52284,0.664175,0.64342,-0.180022,0.0178902,-0.0198713,-0.02279
18.857,-8.45489,-8.46344,1.52105,0.661614,0.641154,-0.177002,0.0181192,-0.020041,-0.0228145
18.867,-8.44829,-8.45704,1.5193,0.659042,0.638872,-0.173926,0.0182837,-0.0201417,-0.022837
18.877,-8.44171,-8.45066,1.51758,0.656466,0.636579,-0.17083,0.018385,-0.0201753,-0.0228577
18.887,-8.43516,-8.44431,1.51589,0.653893,0.634283,-0.167691,0.018425,-0.0201436,-0.0228765
18.897,-8.42864,-8.43798,1.51423,0.651327,0.631986,-0.16442,0.0184048,-0.0200483,-0.0228936
18.907,-8.42214,-8.43167,1.5126,0.648775,0.629696,-0.16107,0.0183258,-0.0198913,-0.022909
18.917,-8.41566,-8.42539,1.51101,0.646246,0.627419,-0.15767,0.0181901,-0.0196748,-0.0229227
18.927,-8.40922,-8.41913,1.50945,0.643744,0.625161,-0.154226,0.0179999,-0.0194016,-0.0229349
18.937,-8.40279,-8.41289,1.50793,0.641277,0.622928,-0.150774,0.0177576,-0.0190742,-0.0229457
18.947,-8.39639,-8.40667,1.50644,0.638849,0.620724,-0.147306,0.0174657,-0.0186958,-0.0229552
18.957,-8.39002,-8.40048,1.50499,0.636465,0.618553,-0.143766,0.0171266,-0.0182688,-0.0229635
18.967,-8.38367,-8.3943,1.50357,0.63413,0.616421,-0.140197,0.0167428,-0.0177962,-0.0229707
18.977,-8.37734,-8.38815,1.50219,0.63185,0.614333,-0.136634,0.016317,-0.0172811,-0.022977
18.987,-8.37103,-8.38202,1.50084,0.629627,0.612291,-0.133029,0.0158522,-0.0167268,-0.0229825
18.997,-8.36475,-8.37591,1.49953,0.627464,0.610297,-0.129247,0.0153506,-0.0161356,-0.0229872
19.007,-8.35848,-8.36981,1.49826,0.625366,0.608356,-0.125355,0.0148147,-0.0155105,-0.0229914
19.017,-8.35224,-8.36374,1.49703,0.623335,0.606471,-0.121407,0.0142475,-0.0148547,-0.0229951
19.027,-8.34602,-8.35769,1.49583,0.621378,0.604648,-0.117446,0.013652,-0.0141715,-0.0229984
19.037,-8.33981,-8.35165,1.49468,0.619495,0.602888,-0.113505,0.0130313,-0.0134643,-0.0230015
19.047,-8.33363,-8.34563,1.49357,0.61769,0.601193,-0.109612,0.0123884,-0.0127362,-0.0230045
19.057,-8.32746,-8.33963,1.49249,0.615966,0.599567,-0.105788,0.0117263,-0.0119904,-0.0230074
19.067,-8.32131,-8.33364,1.49146,0.614323,0.598011,-0.102048,0.0110477,-0.0112298,-0.0230104
19.077,-8.31518,-8.32767,1.49046,0.612763,0.596527,-0.0984053,0.0103554,-0.0104574,-0.0230134
19.087,-8.30906,-8.32171,1.48949,0.611287,0.595114,-0.0948684,0.00965198,-0.00967581,-0.0230166
19.097,-8.30295,-8.31577,1.48856,0.609896,0.593775,-0.0914435,0.00893997,-0.00888773,-0.02302
19.107,-8.29686,-8.30984,1.48767,0.608589,0.59251,-0.0881345,0.00822175,-0.00809559,-0.0230237
19.117,-8.29078,-8.30392,1.4868,0.607367,0.591319,-0.0849437,0.0074996,-0.0073018,-0.0230277
19.127,-8.28471,-8.29801,1.48597,0.60623,0.590201,-0.081872,0.00677569,-0.00650863,-0.023032
19.167,-8.26055,-8.27448,1.48293,0.602513,0.586464,-0.0707589,0.00390264,-0.00338355,-0.0230528
19.177,-8.25452,-8.26862,1.48224,0.601787,0.585709,-0.0681959,0.00319922,-0.00262361,-0.0230589
19.187,-8.24851,-8.26277,1.48157,0.601139,0.585024,-0.0655292,0.00250494,-0.00187553,-0.0230653
19.197,-8.2425,-8.25692,1.48093,0.600568,0.584407,-0.0627966,0.00182128,-0.00114088,-0.0230721
19.207,-8.2365,-8.25108,1.48031,0.600073,0.583857,-0.0600221,0.00114974,-0.000421201,-0.0230793
19.217,-8.2305,-8.24525,1.47973,0.599652,0.583374,-0.0572278,0.000491777,0.000282054,-0.0230867
19.227,-8.22451,-8.23941,1.47917,0.599303,0.582955,-0.0544194,-0.000151247,0.000967517,-0.0230943
19.237,-8.21852,-8.23359,1.47864,0.599024,0.5826,-0.0516224,-0.000778059,0.00163393,-0.0231023
19.247,-8.21253,-8.22776,1.47814,0.598814,0.582306,-0.0488453,-0.00138747,0.00228016,-0.0231104
19.257,-8.20654,-8.22194,1.47767,0.598669,0.582071,-0.0460797,-0.00197843,0.00290514,-0.0231187
19.267,-8.20055,-8.21612,1.47722,0.598588,0.581894,-0.0433452,-0.00254995,0.00350791,-0.0231271
19.277,-8.19457,-8.2103,1.47681,0.598568,0.581772,-0.0406574,-0.00310113,0.00408764,-0.0231357
19.287,-8.18858,-8.20449,1.47641,0.598606,0.581704,-0.0380176,-0.00363116,0.00464359,-0.0231444
19.297,-8.18259,-8.19867,1.47605,0.5987,0.581686,-0.0354125,-0.00413933,0.00517508,-0.023153
19.307,-8.17661,-8.19285,1.47571,0.598847,0.581717,-0.0328557,-0.00462502,0.00568149,-0.0231617
19.317,-8.17062,-8.18703,1.47539,0.599045,0.581795,-0.0303578,-0.00508765,0.00616236,-0.0231704
19.327,-8.16463,-8.18122,1.4751,0.59929,0.581916,-0.0279168,-0.00552674,0.00661728,-0.023179
19.337,-8.15863,-8.1754,1.47484,0.59958,0.582079,-0.025518,-0.00594191,0.00704587,-0.0231876
19.347,-8.15263,-8.16957,1.47459,0.599912,0.582281,-0.0231716,-0.0063328,0.00744783,-0.023196
19.357,-8.14663,-8.16375,1.47438,0.600283,0.58252,-0.0208858,-0.00669916,0.00782299,-0.0232043
19.367,-8.14063,-8.15792,1.47418,0.600691,0.582792,-0.0186584,-0.00704079,0.00817124,-0.0232124
19.377,-8.13462,-8.15209,1.474,0.601132,0.583096,-0.0164769,-0.00735755,0.00849247,-0.0232203
19.387,-8.1286,-8.14626,1.47385,0.601604,0.583429,-0.0143492,-0.00764939,0.00878665,-0.0232281
19.397,-8.12259,-8.14042,1.47372,0.602103,0.583789,-0.0122813,-0.00791628,0.00905388,-0.0232356
19.407,-8.11656,-8.13458,1.47361,0.602628,0.584172,-0.0102714,-0.00815827,0.00929431,-0.0232428
19.417,-8.11053,-8.12874,1.47352,0.603175,0.584578,-0.00830967,-0.00837549,0.00950806,-0.0232498
19.467,-8.0803,-8.09945,1.47334,0.606146,0.586841,0.00065357,-0.00909744,0.0101871,-0.0232807
19.477,-8.07423,-8.09358,1.47335,0.606769,0.587324,0.00228726,-0.00917126,0.0102477,-0.023286
19.487,-8.06816,-8.08771,1.47338,0.607396,0.587813,0.00386866,-0.00922253,0.0102844,-0.0232911
19.497,-8.06209,-8.08183,1.47343,0.608024,0.588305,0.00539848,-0.00925176,0.0102976,-0.0232958
19.507,-8.056,-8.07594,1.47349,0.608652,0.588797,0.0068753,-0.00925948,0.0102881,-0.0233003
19.517,-8.04991,-8.07005,1.47357,0.609275,0.589288,0.00829839,-0.00924627,0.0102565,-0.0233045
19.527,-8.04382,-8.06415,1.47366,0.609894,0.589776,0.00966819,-0.00921273,0.0102036,-0.0233085
19.537,-8.03771,-8.05825,1.47376,0.610505,0.590258,0.0109862,-0.00915957,0.0101301,-0.0233122
19.547,-8.0316,-8.05235,1.47388,0.611106,0.590733,0.0122527,-0.00908751,0.0100368,-0.0233157
19.557,-8.02549,-8.04644,1.47401,0.611695,0.591199,0.0134685,-0.00899731,0.00992459,-0.0233189
19.567,-8.01937,-8.04052,1.47415,0.612272,0.591655,0.0146333,-0.00888974,0.00979437,-0.023322
19.577,-8.01324,-8.03461,1.4743,0.612833,0.592099,0.0157461,-0.00876569,0.00964702,-0.0233248
19.587,-8.00711,-8.02868,1.47447,0.613377,0.592528,0.0168089,-0.00862602,0.00948347,-0.0233275
19.597,-8.00098,-8.02276,1.47464,0.613902,0.592943,0.0178237,-0.00847161,0.0093047,-0.02333
19.607,-7.99483,-8.01682,1.47482,0.614408,0.593341,0.0187902,-0.00830334,0.0091117,-0.0233324
19.617,-7.98869,-8.01089,1.47502,0.614893,0.593722,0.0197056,-0.00812216,0.00890546,-0.0233347
19.627,-7.98254,-8.00495,1.47522,0.615355,0.594083,0.0205732,-0.00792901,0.00868698,-0.0233369
19.637,-7.97638,-7.99901,1.47543,0.615793,0.594425,0.0213963,-0.0077248,0.00845729,-0.0233389
19.667,-7.95789,-7.98116,1.47611,0.616958,0.59532,0.0235732,-0.00705533,0.00771111,-0.0233447
19.677,-7.95172,-7.9752,1.47634,0.617293,0.595573,0.0242064,-0.00681643,0.00744668,-0.0233466
19.687,-7.94554,-7.96925,1.47659,0.6176,0.595802,0.0248006,-0.00657117,0.0071761,-0.0233484
19.697,-7.93936,-7.96329,1.47684,0.617879,0.596007,0.0253593,-0.00632041,0.00690035,-0.0233503
19.707,-7.93318,-7.95733,1.4771,0.61813,0.596186,0.0258811,-0.00606503,0.00662043,-0.0233521
19.717,-7.927,-7.95136,1.47736,0.618352,0.596341,0.0263592,-0.00580598,0.00633725,-0.023354
19.727,-7.92082,-7.9454,1.47763,0.618544,0.59647,0.0267988,-0.00554412,0.00605173,-0.0233559
19.737,-7.91463,-7.93943,1.4779,0.618708,0.596574,0.0272048,-0.00528031,0.0057648,-0.0233578
19.747,-7.90844,-7.93347,1.47817,0.618842,0.596652,0.0275759,-0.00501533,0.00547733,-0.0233597
19.757,-7.90225,-7.9275,1.47845,0.618947,0.596704,0.0279047,-0.00475006,0.00519016,-0.0233617
19.767,-7.89606,-7.92153,1.47873,0.619022,0.596731,0.0281976,-0.00448527,0.0049041,-0.0233637
19.777,-7.88987,-7.91557,1.47901,0.619069,0.596732,0.02846,-0.00422171,0.00461996,-0.0233658
19.787,-7.88368,-7.9096,1.4793,0.619088,0.596708,0.028696,-0.00396008,0.00433852,-0.023368
19.797,-7.87749,-7.90363,1.47959,0.619078,0.596658,0.0289092,-0.00370105,0.00406054,-0.0233702
19.807,-7.8713,-7.89767,1.47988,0.61904,0.596585,0.0291029,-0.00344525,0.00378674,-0.0233724
19.817,-7.86511,-7.8917,1.48017,0.618975,0.596486,0.0292796,-0.00319331,0.00351779,-0.0233747
19.827,-7.85892,-7.88574,1.48046,0.618884,0.596364,0.0294347,-0.00294582,0.00325436,-0.0233771
19.837,-7.85273,-7.87977,1.48076,0.618766,0.596219,0.029555,-0.00270343,0.00299698,-0.0233795
19.877,-7.828,-7.85594,1.48194,0.618049,0.595416,0.0297536,-0.00179594,0.00203857,-0.0233896
19.887,-7.82182,-7.84999,1.48224,0.617812,0.595163,0.0297146,-0.00158707,0.001819,-0.0233922
19.897,-7.81564,-7.84404,1.48254,0.617554,0.594891,0.0296481,-0.00138625,0.00160826,-0.0233949
19.907,-7.80947,-7.83809,1.48283,0.617275,0.594601,0.0295566,-0.00119382,0.00140672,-0.0233976
19.917,-7.8033,-7.83215,1.48313,0.616977,0.594292,0.0294364,-0.0010101,0.00121468,-0.0234003
19.927,-7.79713,-7.82621,1.48342,0.616661,0.593967,0.0292948,-0.000835356,0.00103244,-0.023403
19.937,-7.79096,-7.82027,1.48371,0.616328,0.593627,0.0291335,-0.000669829,0.000860265,-0.0234057
19.947,-7.7848,-7.81433,1.48401,0.615978,0.593271,0.0289487,-0.000513751,0.000698366,-0.0234085
19.957,-7.77864,-7.8084,1.48429,0.615613,0.592901,0.0287471,-0.000367305,0.000546931,-0.0234112
19.967,-7.77249,-7.80248,1.48458,0.615233,0.592519,0.0285275,-0.000230634,0.000406125,-0.023414
19.977,-7.76634,-7.79655,1.48486,0.614841,0.592124,0.0282809,-0.000103908,0.000276027,-0.0234168
19.987,-7.76019,-7.79063,1.48515,0.614437,0.591718,0.028015,1.27612e-05,0.000156712,-0.0234195
19.997,-7.75405,-7.78472,1.48542,0.614021,0.591302,0.0277363,0.000119323,4.82542e-05,-0.0234223
20.007,-7.74791,-7.77881,1.4857,0.613596,0.590877,0.0274436,0.000215759,-4.93011e-05,-0.023425
20.017,-7.74178,-7.7729,1.48597,0.613163,0.590443,0.0271284,0.00030202,-0.000135994,-0.0234277
20.027,-7.73565,-7.767,1.48624,0.612722,0.590003,0.0267979,0.00037811,-0.000211868,-0.0234304
20.037,-7.72953,-7.7611,1.48651,0.612274,0.589556,0.0264563,0.000444087,-0.000276969,-0.0234331
20.047,-7.72341,-7.75521,1.48677,0.611821,0.589104,0.0261041,0.000500023,-0.000331378,-0.0234358
20.057,-7.71729,-7.74932,1.48703,0.611364,0.588648,0.0257468,0.000546026,-0.000375196,-0.0234384
20.067,-7.71118,-7.74344,1.48729,0.610903,0.588188,0.0253822,0.000582232,-0.000408541,-0.0234411
20.077,-7.70507,-7.73756,1.48754,0.61044,0.587726,0.0250003,0.000608735,-0.000431627,-0.0234437
20.087,-7.69897,-7.73168,1.48778,0.609976,0.587263,0.0246082,0.000625681,-0.000444657,-0.0234463
20.097,-7.69287,-7.72581,1.48803,0.609512,0.586799,0.0242113,0.000633266,-0.000447827,-0.0234488
20.107,-7.68678,-7.71995,1.48827,0.609048,0.586335,0.0238088,0.000631716,-0.00044135,-0.0234514
20.117,-7.68069,-7.71409,1.4885,0.608586,0.585873,0.023393,0.000621218,-0.000425516,-0.0234539
20.127,-7.67461,-7.70823,1.48874,0.608127,0.585412,0.0229702,0.000602009,-0.000400611,-0.0234564
20.137,-7.66853,-7.70238,1.48896,0.607672,0.584954,0.0225421,0.000574368,-0.000366918,-0.0234588
20.147,-7.66246,-7.69653,1.48919,0.60722,0.5845,0.0221051,0.000538563,-0.000324771,-0.0234613
20.167,-7.65032,-7.68485,1.48962,0.606334,0.583606,0.0212261,0.000443712,-0.000216432,-0.0234662
20.177,-7.64426,-7.67902,1.48983,0.605901,0.583167,0.0207921,0.000385368,-0.000150902,-0.0234686
20.187,-7.6382,-7.67319,1.49003,0.605475,0.582734,0.0203657,0.000320236,-7.82603e-05,-0.0234709
20.197,-7.63215,-7.66736,1.49024,0.605057,0.582309,0.0199433,0.000248693,1.12392e-06,-0.0234733
20.207,-7.6261,-7.66154,1.49043,0.604648,0.581891,0.0195149,0.000171051,8.67968e-05,-0.0234757
20.217,-7.62006,-7.65573,1.49063,0.604248,0.581481,0.0190853,8.76585e-05,0.000178326,-0.0234781
20.227,-7.61402,-7.64991,1.49081,0.603858,0.58108,0.0186536,-1.10147e-06,0.000275301,-0.0234804
20.237,-7.60798,-7.6441,1.491,0.603479,0.580688,0.0182121,-9.48971e-05,0.000377249,-0.0234828
20.247,-7.60195,-7.6383,1.49118,0.603111,0.580306,0.0177668,-0.000193356,0.000483731,-0.0234851
20.257,-7.59592,-7.6325,1.49135,0.602754,0.579934,0.0173223,-0.000296068,0.000594343,-0.0234874
20.267,-7.58989,-7.6267,1.49152,0.602408,0.579572,0.0168313,-0.000402612,0.000708686,-0.0234898
20.277,-7.58387,-7.62091,1.49169,0.602074,0.579221,0.0161888,-0.00051264,0.000826342,-0.0234921
20.287,-7.57785,-7.61512,1.49185,0.601753,0.578881,0.0154316,-0.000625777,0.000946918,-0.0234945
20.297,-7.57184,-7.60933,1.492,0.601444,0.578553,0.01459,-0.000741616,0.00107004,-0.0234968
20.307,-7.56582,-7.60355,1.49214,0.601148,0.578235,0.0136884,-0.000859747,0.00119534,-0.0234991
20.317,-7.55981,-7.59777,1.49227,0.600865,0.57793,0.0127468,-0.000979825,0.00132237,-0.0235015
20.327,-7.55381,-7.59199,1.49239,0.600594,0.577636,0.0117814,-0.00110148,0.00145072,-0.0235038
20.337,-7.5478,-7.58621,1.4925,0.600337,0.577354,0.0108053,-0.00122434,0.00158,-0.0235062
20.347,-7.5418,-7.58044,1.49261,0.600093,0.577084,0.00982864,-0.00134801,0.00170982,-0.0235085
20.357,-7.5358,-7.57467,1.4927,0.599862,0.576826,0.00885985,-0.00147217,0.00183978,-0.0235109
20.367,-7.5298,-7.5689,1.49278,0.599645,0.57658,0.00790534,-0.00159643,0.00196951,-0.0235133
20.377,-7.52381,-7.56314,1.49286,0.59944,0.576347,0.00697013,-0.00172044,0.00209866,-0.0235156
20.387,-7.51781,-7.55738,1.49292,0.599249,0.576125,0.00605805,-0.00184385,0.00222687,-0.023518
20.397,-7.51182,-7.55162,1.49298,0.599071,0.575916,0.00517192,-0.00196634,0.00235382,-0.0235204
20.407,-7.50583,-7.54586,1.49302,0.598905,0.575718,0.00431378,-0.00208758,0.00247917,-0.0235227
20.417,-7.49985,-7.5401,1.49306,0.598753,0.575532,0.00348502,-0.00220727,0.00260259,-0.0235251
20.427,-7.49386,-7.53435,1.49309,0.598612,0.575358,0.00268651,-0.00232512,0.0027238,-0.0235274
20.437,-7.48787,-7.5286,1.49312,0.598484,0.575195,0.00191868,-0.00244083,0.00284252,-0.0235298
20.447,-7.48189,-7.52285,1.49313,0.598368,0.575043,0.00118162,-0.0025542,0.00295842,-0.0235321
20.457,-7.47591,-7.5171,1.49314,0.598264,0.574902,0.000475175,-0.00266498,0.00307124,-0.0235345
20.467,-7.46992,-7.51135,1.49314,0.598171,0.574771,-0.000201055,-0.00277292,0.00318074,-0.0235368
20.477,-7.46394,-7.5056,1.49313,0.598089,0.574652,-0.000847618,-0.00287778,0.00328673,-0.0235391
20.487,-7.45796,-7.49985,1.49312,0.598017,0.574542,-0.00146519,-0.00297931,0.00338904,-0.0235414
20.497,-7.45198,-7.49411,1.4931,0.597956,0.574441,-0.00205455,-0.00307733,0.00348747,-0.0235437
20.507,-7.446,-7.48837,1.49308,0.597904,0.574351,-0.00261654,-0.00317168,0.00358183,-0.023546
20.517,-7.44002,-7.48262,1.49305,0.597862,0.574269,-0.00315204,-0.00326217,0.00367199,-0.0235483
20.527,-7.43405,-7.47688,1.49302,0.597829,0.574195,-0.00366198,-0.00334871,0.00375776,-0.0235505
20.547,-7.42209,-7.4654,1.49293,0.597788,0.574073,-0.00460893,-0.00350952,0.00391552,-0.023555
20.557,-7.41611,-7.45966,1.49289,0.597779,0.574024,-0.00504783,-0.00358363,0.00398728,-0.0235571
20.567,-7.41013,-7.45392,1.49283,0.597777,0.573981,-0.00546491,-0.00365339,0.0040542,-0.0235593
20.577,-7.40416,-7.44818,1.49278,0.597782,0.573945,-0.0058611,-0.00371876,0.00411621,-0.0235614
20.587,-7.39818,-7.44244,1.49271,0.597792,0.573915,-0.00623729,-0.00377967,0.00417327,-0.0235635
20.597,-7.3922,-7.4367,1.49265,0.597808,0.57389,-0.00659435,-0.00383605,0.00422538,-0.0235656
20.607,-7.38622,-7.43096,1.49258,0.59783,0.573871,-0.00693313,-0.00388788,0.00427253,-0.0235677
20.617,-7.38024,-7.42522,1.49251,0.597855,0.573857,-0.00725444,-0.00393512,0.00431474,-0.0235697
20.627,-7.37427,-7.41948,1.49244,0.597885,0.573847,-0.00755908,-0.00397775,0.00435205,-0.0235717
20.637,-7.36829,-7.41375,1.49236,0.597919,0.573841,-0.00784781,-0.00401581,0.00438445,-0.0235737
20.667,-7.35035,-7.39653,1.49211,0.598036,0.573843,-0.00862576,-0.00410293,0.00445266,-0.0235794
20.677,-7.34437,-7.39079,1.49202,0.598078,0.573848,-0.00885792,-0.00412303,0.00446604,-0.0235813
20.687,-7.33839,-7.38505,1.49193,0.598122,0.573856,-0.00907755,-0.00413881,0.00447485,-0.0235831
20.697,-7.3324,-7.37931,1.49184,0.598167,0.573864,-0.00928526,-0.00415036,0.00447918,-0.0235849
20.707,-7.32642,-7.37358,1.49175,0.598212,0.573874,-0.0094816,-0.00415776,0.00447914,-0.0235867
20.717,-7.32044,-7.36784,1.49165,0.598257,0.573884,-0.00966713,-0.0041611,0.00447489,-0.0235884
20.727,-7.31446,-7.3621,1.49156,0.598301,0.573894,-0.00984236,-0.00416053,0.00446649,-0.0235902
20.737,-7.30847,-7.35636,1.49146,0.598344,0.573905,-0.0100078,-0.0041562,0.00445408,-0.0235918
20.747,-7.30249,-7.35062,1.49136,0.598386,0.573914,-0.0101639,-0.00414822,0.0044378,-0.0235935
20.757,-7.29651,-7.34488,1.49125,0.598426,0.573923,-0.0103111,-0.00413679,0.00441775,-0.0235952
20.767,-7.29052,-7.33914,1.49115,0.598463,0.57393,-0.0104498,-0.00412207,0.00439406,-0.0235968
20.777,-7.28454,-7.3334,1.49104,0.598499,0.573936,-0.0105806,-0.00410419,0.00436695,-0.0235984
20.787,-7.27855,-7.32766,1.49094,0.598531,0.573941,-0.0107036,-0.00408327,0.00433661,-0.0235999
20.797,-7.27257,-7.32192,1.49083,0.59856,0.573943,-0.0108194,-0.00405941,0.00430327,-0.0236015
20.807,-7.26658,-7.31618,1.49072,0.598586,0.573943,-0.0109283,-0.00403276,0.00426714,-0.023603
20.817,-7.26059,-7.31044,1.49061,0.598608,0.57394,-0.0110305,-0.00400353,0.00422837,-0.0236045
20.827,-7.25461,-7.30471,1.4905,0.598626,0.573934,-0.0111265,-0.00397192,0.00418711,-0.023606
20.837,-7.24862,-7.29897,1.49039,0.59864,0.573925,-0.0112166,-0.00393808,0.00414358,-0.0236075
20.857,-7.23665,-7.28749,1.49016,0.598655,0.573898,-0.0113799,-0.00386441,0.00405049,-0.0236104
20.867,-7.23066,-7.28175,1.49005,0.598655,0.573879,-0.0114538,-0.00382501,0.00400125,-0.0236118
20.877,-7.22468,-7.27601,1.48993,0.59865,0.573856,-0.0115228,-0.00378413,0.00395048,-0.0236133
20.887,-7.21869,-7.27027,1.48982,0.59864,0.573829,-0.0115871,-0.0037419,0.00389841,-0.0236147
20.897,-7.2127,-7.26453,1.4897,0.598625,0.573798,-0.011647,-0.00369858,0.00384517,-0.0236161
20.907,-7.20672,-7.2588,1.48958,0.598605,0.573763,-0.0117028,-0.00365437,0.00379091,-0.0236175
20.917,-7.20073,-7.25306,1.48947,0.598579,0.573724,-0.0117545,-0.00360942,0.00373585,-0.0236188
20.927,-7.19474,-7.24732,1.48935,0.598547,0.573681,-0.0118025,-0.00356385,0.00368021,-0.0236202
20.937,-7.18876,-7.24158,1.48923,0.598511,0.573633,-0.0118469,-0.0035178,0.00362424,-0.0236216
20.947,-7.18277,-7.23585,1.48911,0.598468,0.573581,-0.0118878,-0.00347137,0.00356815,-0.0236229
20.957,-7.17679,-7.23011,1.48899,0.59842,0.573525,-0.0119255,-0.0034247,0.00351215,-0.0236243
20.967,-7.17081,-7.22438,1.48887,0.598367,0.573464,-0.011909,-0.00337789,0.00345644,-0.0236256
20.977,-7.16482,-7.21864,1.48876,0.598309,0.5734,-0.0117301,-0.00333104,0.00340101,-0.023627
20.987,-7.15884,-7.21291,1.48864,0.598246,0.573332,-0.0114238,-0.00328423,0.00334592,-0.0236283
20.997,-7.15286,-7.20718,1.48853,0.598178,0.573259,-0.0110188,-0.00323761,0.00329133,-0.0236296
21.007,-7.14688,-7.20145,1.48842,0.598105,0.573183,-0.0105362,-0.0031913,0.00323741,-0.023631
21.017,-7.1409,-7.19571,1.48832,0.598026,0.573102,-0.00999061,-0.00314552,0.00318426,-0.0236323
21.027,-7.13492,-7.18998,1.48822,0.597943,0.573017,-0.0093992,-0.00310044,0.00313204,-0.0236336
21.057,-7.11698,-7.1728,1.48797,0.597663,0.572739,-0.00746577,-0.00297079,0.00298248,-0.0236375
21.067,-7.11101,-7.16707,1.4879,0.597561,0.572639,-0.00679165,-0.00292993,0.00293538,-0.0236389
21.077,-7.10503,-7.16134,1.48783,0.597453,0.572534,-0.00611518,-0.00289045,0.00288987,-0.0236402
21.087,-7.09906,-7.15562,1.48778,0.597342,0.572427,-0.00543992,-0.00285242,0.00284607,-0.0236415
21.097,-7.09308,-7.1499,1.48773,0.597226,0.572315,-0.00476576,-0.00281598,0.00280406,-0.0236428
21.107,-7.08711,-7.14417,1.48768,0.597107,0.572201,-0.00409773,-0.00278123,0.00276389,-0.0236441
21.117,-7.08114,-7.13845,1.48764,0.596983,0.572083,-0.00343979,-0.00274822,0.00272569,-0.0236454
21.127,-7.07517,-7.13273,1.48761,0.596856,0.571962,-0.00279207,-0.002717,0.00268954,-0.0236467
21.137,-7.06921,-7.12701,1.48759,0.596725,0.571839,-0.00215069,-0.00268774,0.00265541,-0.023648
21.147,-7.06324,-7.1213,1.48757,0.596592,0.571713,-0.00151936,-0.00266054,0.00262329,-0.0236493
21.157,-7.05727,-7.11558,1.48756,0.596455,0.571584,-0.000900918,-0.00263542,0.00259326,-0.0236506
21.167,-7.05131,-7.10986,1.48755,0.596315,0.571454,-0.000296909,-0.00261239,0.0025654,-0.0236519
21.177,-7.04535,-7.10415,1.48755,0.596173,0.571321,0.000292361,-0.00259147,0.00253974,-0.0236532
21.187,-7.03939,-7.09844,1.48756,0.596029,0.571187,0.000865982,-0.00257267,0.00251634,-0.0236545
21.197,-7.03343,-7.09273,1.48757,0.595883,0.571051,0.00142419,-0.00255605,0.00249517,-0.0236558
21.207,-7.02747,-7.08702,1.48759,0.595734,0.570914,0.00196584,-0.00254162,0.00247624,-0.023657
21.217,-7.02151,-7.08131,1.48761,0.595584,0.570776,0.00249028,-0.00252935,0.00245959,-0.0236583
21.227,-7.01556,-7.0756,1.48764,0.595433,0.570636,0.00299728,-0.00251922,0.00244523,-0.0236596
21.237,-7.0096,-7.0699,1.48767,0.59528,0.570496,0.00348655,-0.0025112,0.00243318,-0.0236609
21.247,-7.00365,-7.06419,1.48771,0.595127,0.570356,0.00395803,-0.00250529,0.00242341,-0.0236622
21.267,-6.99175,-7.05279,1.4878,0.594818,0.570074,0.00484782,-0.00249964,0.0024107,-0.0236647
21.277,-6.98581,-7.04709,1.48785,0.594663,0.569933,0.00526626,-0.00249981,0.00240772,-0.023666
21.287,-6.97986,-7.04139,1.4879,0.594508,0.569792,0.00566704,-0.00250191,0.00240697,-0.0236673
21.297,-6.97392,-7.03569,1.48796,0.594353,0.569652,0.00604965,-0.00250595,0.00240834,-0.0236686
21.307,-6.96797,-7.03,1.48802,0.594199,0.569512,0.00641492,-0.00251188,0.00241179,-0.0236698
21.317,-6.96203,-7.0243,1.48809,0.594045,0.569373,0.00676369,-0.00251963,0.00241729,-0.0236711
