timestamp,x,y,z,vx,vy,vz,roll,pitch,yaw
14.692,8.99987,8.99957,0.182462,0.00491761,0.00226316,-0.00386049,-1.14754e-05,2.4468e-05,-0.0203666
14.702,8.99986,8.99957,0.182462,-0.0047951,-0.00222434,-0.00387414,1.15457e-05,-2.21359e-05,-0.020381
14.712,8.99987,8.99957,0.182462,0.00491768,0.00226303,-0.0038605,-1.14755e-05,2.44681e-05,-0.0203966
14.722,8.99986,8.99957,0.182462,-0.00479516,-0.00222421,-0.00387415,1.15458e-05,-2.21359e-05,-0.020411
14.732,8.99987,8.99957,0.182462,0.00491775,0.0022629,-0.00386051,-1.14756e-05,2.44681e-05,-0.0204266
14.742,8.99986,8.99957,0.182462,-0.00479523,-0.00222408,-0.00387416,1.15459e-05,-2.21359e-05,-0.0204411
14.752,8.99987,8.99957,0.182462,0.00491782,0.00226277,-0.00386052,-1.14757e-05,2.44682e-05,-0.0204566
14.762,8.99986,8.99956,0.182462,-0.00479529,-0.00222395,-0.00387417,1.1546e-05,-2.21358e-05,-0.0204711
14.772,8.99987,8.99957,0.182462,0.00491789,0.00226263,-0.00386053,-1.14757e-05,2.44682e-05,-0.0204867
14.782,8.99986,8.99956,0.182462,-0.00479536,-0.00222382,-0.00387418,1.15461e-05,-2.21358e-05,-0.0205011
14.792,8.99987,8.99957,0.182462,0.00491796,0.0022625,-0.00386054,-1.14758e-05,2.44683e-05,-0.0205167
14.802,8.99986,8.99956,0.182462,-0.00479542,-0.0022237,-0.00387418,1.15462e-05,-2.21358e-05,-0.0205311
14.812,8.99987,8.99957,0.182462,0.00491803,0.00226237,-0.00386054,-1.14759e-05,2.44684e-05,-0.0205467
14.822,8.99986,8.99956,0.182462,-0.00479549,-0.00222357,-0.00387419,1.15463e-05,-2.21358e-05,-0.0205611
14.832,8.99987,8.99957,0.182462,0.0049181,0.00226224,-0.00386055,-1.1476e-05,2.44684e-05,-0.0205767
14.862,8.99986,8.99956,0.182462,-0.00479562,-0.00222331,-0.00387421,1.15465e-05,-2.21358e-05,-0.0206211
14.872,8.99987,8.99956,0.182462,0.00491824,0.00226197,-0.00386057,-1.14762e-05,2.44685e-05,-0.0206367
14.882,8.99986,8.99956,0.182462,-0.00479568,-0.00222318,-0.00387422,1.15466e-05,-2.21358e-05,-0.0206511
14.892,8.99987,8.99956,0.182462,0.00491831,0.00226184,-0.00386058,-1.14762e-05,2.44686e-05,-0.0206667
14.902,8.99986,8.99956,0.182462,-0.00479575,-0.00222305,-0.00387423,1.15467e-05,-2.21358e-05,-0.0206811
14.912,8.99987,8.99956,0.182462,0.00491838,0.00226171,-0.00386059,-1.14763e-05,2.44686e-05,-0.0206967
14.922,8.99986,8.99956,0.182462,-0.00479581,-0.00222292,-0.00387424,1.15468e-05,-2.21358e-05,-0.0207112
14.932,8.99987,8.99956,0.182462,0.00491845,0.00226157,-0.0038606,-1.14764e-05,2.44687e-05,-0.0207268
14.942,8.99986,8.99956,0.182462,-0.00479588,-0.00222279,-0.00387425,1.15469e-05,-2.21358e-05,-0.0207412
14.952,8.99987,8.99956,0.182462,0.00491852,0.00226144,-0.00386061,-1.14765e-05,2.44687e-05,-0.0207568
14.962,8.99986,8.99956,0.182462,-0.00479595,-0.00222266,-0.00387425,1.1547e-05,-2.21358e-05,-0.0207712
14.972,8.99987,8.99956,0.182462,0.00491859,0.00226131,-0.00386061,-1.14766e-05,2.44688e-05,-0.0207868
14.982,8.99986,8.99956,0.182462,-0.00479601,-0.00222253,-0.00387426,1.15471e-05,-2.21358e-05,-0.0208012
14.992,8.99987,8.99956,0.182462,0.00491866,0.00226118,-0.00386062,-1.14767e-05,2.44688e-05,-0.0208168
15.002,8.99986,8.99956,0.182462,-0.00479608,-0.00222241,-0.00387427,1.15473e-05,-2.21357e-05,-0.0208312
15.012,8.99987,8.99956,0.182462,0.00491873,0.00226104,-0.00386063,-1.14767e-05,2.44689e-05,-0.0208468
15.022,8.99986,8.99956,0.182462,-0.00479614,-0.00222228,-0.00387428,1.15474e-05,-2.21357e-05,-0.0208612
15.032,8.99987,8.99956,0.182462,0.0049188,0.00226091,-0.00386064,-1.14768e-05,2.4469e-05,-0.0208768
15.042,8.99986,8.99956,0.182462,-0.00479621,-0.00222215,-0.00387429,1.15475e-05,-2.21357e-05,-0.0208912
15.062,8.99986,8.99956,0.182462,-0.00479627,-0.00222202,-0.0038743,1.15476e-05,-2.21357e-05,-0.0209212
15.072,8.99987,8.99956,0.182462,0.00491894,0.00226065,-0.00386066,-1.1477e-05,2.44691e-05,-0.0209368
15.082,8.99986,8.99955,0.182462,-0.00479634,-0.00222189,-0.00387431,1.15477e-05,-2.21357e-05,-0.0209512
15.092,8.99987,8.99956,0.182462,0.00491901,0.00226052,-0.00386067,-1.14771e-05,2.44691e-05,-0.0209668
15.102,8.99986,8.99955,0.182462,-0.0047964,-0.00222176,-0.00387432,1.15478e-05,-2.21357e-05,-0.0209813
15.112,8.99987,8.99956,0.182462,0.00491908,0.00226038,-0.00386068,-1.14772e-05,2.44692e-05,-0.0209968
15.122,8.99986,8.99955,0.182462,-0.00479647,-0.00222163,-0.00387432,1.15479e-05,-2.21357e-05,-0.0210113
15.132,8.99987,8.99956,0.182462,0.00491915,0.00226025,-0.00386068,-1.14772e-05,2.44692e-05,-0.0210269
15.142,8.99986,8.99955,0.182462,-0.00479653,-0.0022215,-0.00387433,1.1548e-05,-2.21357e-05,-0.0210413
15.152,8.99987,8.99956,0.182462,0.00491922,0.00226012,-0.00386069,-1.14773e-05,2.44693e-05,-0.0210569
15.162,8.99986,8.99955,0.182462,-0.0047966,-0.00222137,-0.00387434,1.15481e-05,-2.21357e-05,-0.0210713
15.172,8.99987,8.99956,0.182462,0.00491928,0.00225999,-0.0038607,-1.14774e-05,2.44693e-05,-0.0210869
15.182,8.99986,8.99955,0.182462,-0.00479666,-0.00222124,-0.00387435,1.15482e-05,-2.21357e-05,-0.0211013
15.192,8.99987,8.99955,0.182462,0.00491935,0.00225985,-0.00386071,-1.14775e-05,2.44694e-05,-0.0211169
15.202,8.99986,8.99955,0.182462,-0.00479673,-0.00222112,-0.00387436,1.15483e-05,-2.21357e-05,-0.0211313
15.212,8.99987,8.99955,0.182462,0.00491942,0.00225972,-0.00386072,-1.14776e-05,2.44694e-05,-0.0211469
15.222,8.99986,8.99955,0.182462,-0.00479679,-0.00222099,-0.00387437,1.15484e-05,-2.21357e-05,-0.0211613
15.232,8.99987,8.99955,0.182462,0.00491949,0.00225959,-0.00386073,-1.14776e-05,2.44695e-05,-0.0211769
15.282,8.99986,8.99955,0.182462,-0.00479699,-0.0022206,-0.00387439,1.15487e-05,-2.21356e-05,-0.0212513
15.292,8.99987,8.99955,0.182462,0.0049197,0.00225919,-0.00386075,-1.14779e-05,2.44697e-05,-0.0212669
15.302,8.99986,8.99955,0.182462,-0.00479705,-0.00222047,-0.0038744,1.15488e-05,-2.21356e-05,-0.0212813
15.312,8.99987,8.99955,0.182462,0.00491977,0.00225906,-0.00386076,-1.1478e-05,2.44697e-05,-0.0212969
15.322,8.99986,8.99955,0.182462,-0.00479712,-0.00222034,-0.00387441,1.15489e-05,-2.21356e-05,-0.0213113
15.332,8.99987,8.99955,0.182462,0.00491984,0.00225893,-0.00386077,-1.14781e-05,2.44698e-05,-0.0213269
15.342,8.99986,8.99955,0.182462,-0.00479718,-0.00222021,-0.00387442,1.1549e-05,-2.21356e-05,-0.0213413
15.352,8.99987,8.99955,0.182462,0.00491991,0.00225879,-0.00386078,-1.14781e-05,2.44698e-05,-0.0213569
15.362,8.99986,8.99955,0.182462,-0.00479725,-0.00222008,-0.00387443,1.15492e-05,-2.21356e-05,-0.0213713
15.372,8.99987,8.99955,0.182462,0.00491998,0.00225866,-0.00386079,-1.14782e-05,2.44699e-05,-0.0213869
15.382,8.99986,8.99954,0.182462,-0.00479731,-0.00221995,-0.00387444,1.15493e-05,-2.21356e-05,-0.0214014
15.392,8.99987,8.99955,0.182462,0.00492005,0.00225853,-0.0038608,-1.14783e-05,2.44699e-05,-0.0214169
15.402,8.99986,8.99954,0.182462,-0.00479738,-0.00221983,-0.00387445,1.15494e-05,-2.21356e-05,-0.0214314
15.412,8.99987,8.99955,0.182462,0.00492012,0.0022584,-0.00386081,-1.14784e-05,2.447e-05,-0.0214469
15.422,8.99986,8.99954,0.182462,-0.00479744,-0.0022197,-0.00387445,1.15495e-05,-2.21356e-05,-0.0214614
15.432,8.99987,8.99955,0.182462,0.00492019,0.00225826,-0.00386082,-1.14785e-05,2.447e-05,-0.021477
15.442,8.99986,8.99954,0.182462,-0.00479751,-0.00221957,-0.00387446,1.15496e-05,-2.21356e-05,-0.0214914
15.462,8.99986,8.99954,0.182462,-0.00479757,-0.00221944,-0.00387447,1.15497e-05,-2.21356e-05,-0.0215214
15.472,8.99986,8.99955,0.182462,0.00492033,0.002258,-0.00386083,-1.14786e-05,2.44701e-05,-0.021537
15.482,8.99986,8.99954,0.182462,-0.00479764,-0.00221931,-0.00387448,1.15498e-05,-2.21355e-05,-0.0215514
15.492,8.99986,8.99954,0.182462,0.0049204,0.00225787,-0.00386084,-1.14787e-05,2.44702e-05,-0.021567
15.502,8.99986,8.99954,0.182462,-0.0047977,-0.00221918,-0.00387449,1.15499e-05,-2.21355e-05,-0.0215814
15.512,8.99986,8.99954,0.182462,0.00492047,0.00225773,-0.00386085,-1.14788e-05,2.44703e-05,-0.021597
15.522,8.99986,8.99954,0.182462,-0.00479777,-0.00221905,-0.0038745,1.155e-05,-2.21355e-05,-0.0216114
15.532,8.99986,8.99954,0.182462,0.00492054,0.0022576,-0.00386086,-1.14789e-05,2.44703e-05,-0.021627
15.542,8.99986,8.99954,0.182462,-0.00479783,-0.00221892,-0.00387451,1.15501e-05,-2.21355e-05,-0.0216414
15.552,8.99986,8.99954,0.182462,0.00492061,0.00225747,-0.00386087,-1.1479e-05,2.44704e-05,-0.021657
15.572,8.99986,8.99954,0.182462,0.00492068,0.00225734,-0.00386088,-1.14791e-05,2.44704e-05,-0.021687
15.582,8.99985,8.99954,0.182462,-0.00479796,-0.00221866,-0.00387452,1.15503e-05,-2.21355e-05,-0.0217014
15.592,8.99986,8.99954,0.182462,0.00492074,0.0022572,-0.00386089,-1.14791e-05,2.44705e-05,-0.021717
15.602,8.99985,8.99954,0.182462,-0.00479803,-0.00221853,-0.00387453,1.15504e-05,-2.21355e-05,-0.0217314
15.612,8.99986,8.99954,0.182462,0.00492081,0.00225707,-0.00386089,-1.14792e-05,2.44705e-05,-0.021747
15.622,8.99985,8.99954,0.182462,-0.0047981,-0.00221841,-0.00387454,1.15505e-05,-2.21355e-05,-0.0217614
15.632,8.99986,8.99954,0.182462,0.00492088,0.00225694,-0.0038609,-1.14793e-05,2.44706e-05,-0.021777
15.642,8.99985,8.99954,0.182462,-0.00479816,-0.00221828,-0.00387455,1.15506e-05,-2.21355e-05,-0.0217914
15.652,8.99986,8.99954,0.182462,0.00492095,0.00225681,-0.00386091,-1.14794e-05,2.44706e-05,-0.021807
15.662,8.99985,8.99954,0.182462,-0.00479823,-0.00221815,-0.00387456,1.15507e-05,-2.21355e-05,-0.0218214
15.672,8.99986,8.99954,0.182462,0.00492102,0.00225667,-0.00386092,-1.14795e-05,2.44707e-05,-0.021837
15.682,8.99985,8.99953,0.182462,-0.00479829,-0.00221802,-0.00387457,1.15508e-05,-2.21355e-05,-0.0218514
15.692,8.99986,8.99954,0.182462,0.00492109,0.00225654,-0.00386093,-1.14796e-05,2.44707e-05,-0.021867
15.702,8.99985,8.99953,0.182462,-0.00479836,-0.00221789,-0.00387458,1.15509e-05,-2.21355e-05,-0.0218814
15.712,8.99986,8.99954,0.182462,0.00492116,0.00225641,-0.00386094,-1.14796e-05,2.44708e-05,-0.021897
15.722,8.99985,8.99953,0.182462,-0.00479842,-0.00221776,-0.00387459,1.1551e-05,-2.21354e-05,-0.0219114
15.732,8.99986,8.99954,0.182462,0.00492123,0.00225628,-0.00386095,-1.14797e-05,2.44708e-05,-0.021927
15.742,8.99985,8.99953,0.182462,-0.00479849,-0.00221763,-0.00387459,1.15512e-05,-2.21354e-05,-0.0219414
15.752,8.99986,8.99954,0.182462,0.0049213,0.00225614,-0.00386096,-1.14798e-05,2.44709e-05,-0.021957
15.762,8.99985,8.99953,0.182462,-0.00479855,-0.0022175,-0.0038746,1.15513e-05,-2.21354e-05,-0.0219714
15.772,8.99986,8.99954,0.182462,0.00492137,0.00225601,-0.00386096,-1.14799e-05,2.4471e-05,-0.021987
15.782,8.99985,8.99953,0.182462,-0.00479862,-0.00221737,-0.00387461,1.15514e-05,-2.21354e-05,-0.0220014
15.792,8.99986,8.99953,0.182462,0.00492144,0.00225588,-0.00386097,-1.148e-05,2.4471e-05,-0.022017
15.802,8.99985,8.99953,0.182462,-0.00479868,-0.00221724,-0.00387462,1.15515e-05,-2.21354e-05,-0.0220314
15.812,8.99986,8.99953,0.182462,0.00492151,0.00225575,-0.00386098,-1.14801e-05,2.44711e-05,-0.022047
15.822,8.99985,8.99953,0.182462,-0.00479875,-0.00221712,-0.00387463,1.15516e-05,-2.21354e-05,-0.0220614
15.832,8.99986,8.99953,0.182462,0.00492158,0.00225561,-0.00386099,-1.14801e-05,2.44711e-05,-0.022077
15.842,8.99985,8.99953,0.182462,-0.00479881,-0.00221699,-0.00387464,1.15517e-05,-2.21354e-05,-0.0220914
15.882,8.99985,8.99953,0.182462,-0.00479894,-0.00221673,-0.00387466,1.15519e-05,-2.21354e-05,-0.0221514
15.892,8.99986,8.99953,0.182462,0.00492179,0.00225522,-0.00386102,-1.14804e-05,2.44713e-05,-0.022167
15.902,8.99985,8.99953,0.182462,-0.00479901,-0.0022166,-0.00387466,1.1552e-05,-2.21354e-05,-0.0221814
15.912,8.99986,8.99953,0.182462,0.00492186,0.00225508,-0.00386103,-1.14805e-05,2.44713e-05,-0.022197
15.922,8.99985,8.99953,0.182462,-0.00479907,-0.00221647,-0.00387467,1.15521e-05,-2.21354e-05,-0.0222114
15.932,8.99986,8.99953,0.182462,0.00492192,0.00225495,-0.00386103,-1.14806e-05,2.44714e-05,-0.022227
15.942,8.99985,8.99953,0.182462,-0.00479914,-0.00221634,-0.00387468,1.15522e-05,-2.21354e-05,-0.0222414
15.952,8.99986,8.99953,0.182462,0.00492199,0.00225482,-0.00386104,-1.14806e-05,2.44714e-05,-0.022257
15.962,8.99985,8.99953,0.182462,-0.0047992,-0.00221621,-0.00387469,1.15523e-05,-2.21354e-05,-0.0222714
15.972,8.99986,8.99953,0.182462,0.00492206,0.00225469,-0.00386105,-1.14807e-05,2.44715e-05,-0.022287
15.982,8.99985,8.99952,0.182462,-0.00479927,-0.00221608,-0.0038747,1.15524e-05,-2.21353e-05,-0.0223014
15.992,8.99986,8.99953,0.182462,0.00492213,0.00225455,-0.00386106,-1.14808e-05,2.44715e-05,-0.022317
16.002,8.99985,8.99952,0.182462,-0.00479933,-0.00221595,-0.00387471,1.15525e-05,-2.21353e-05,-0.0223314
16.012,8.99986,8.99953,0.182462,0.0049222,0.00225442,-0.00386107,-1.14809e-05,2.44716e-05,-0.022347
16.022,8.99985,8.99952,0.182462,-0.0047994,-0.00221582,-0.00387472,1.15526e-05,-2.21353e-05,-0.0223614
16.032,8.99986,8.99953,0.182462,0.00492227,0.00225429,-0.00386108,-1.1481e-05,2.44717e-05,-0.022377
16.042,8.99985,8.99952,0.182462,-0.00479946,-0.0022157,-0.00387473,1.15527e-05,-2.21353e-05,-0.0223914
16.062,8.99985,8.99952,0.182462,-0.00479953,-0.00221557,-0.00387473,1.15528e-05,-2.21353e-05,-0.0224214
16.072,8.99986,8.99953,0.182462,0.00492241,0.00225402,-0.0038611,-1.14811e-05,2.44718e-05,-0.022437
16.082,8.99985,8.99952,0.182462,-0.00479959,-0.00221544,-0.00387474,1.15529e-05,-2.21353e-05,-0.0224514
16.092,8.99986,8.99952,0.182462,0.00492248,0.00225389,-0.0038611,-1.14812e-05,2.44718e-05,-0.022467
16.102,8.99985,8.99952,0.182462,-0.00479966,-0.00221531,-0.00387475,1.1553e-05,-2.21353e-05,-0.0224814
16.112,8.99986,8.99952,0.182462,0.00492255,0.00225376,-0.00386111,-1.14813e-05,2.44719e-05,-0.022497
16.122,8.99985,8.99952,0.182462,-0.00479972,-0.00221518,-0.00387476,1.15531e-05,-2.21353e-05,-0.0225114
16.132,8.99986,8.99952,0.182462,0.00492262,0.00225363,-0.00386112,-1.14814e-05,2.44719e-05,-0.022527
16.142,8.99985,8.99952,0.182462,-0.00479979,-0.00221505,-0.00387477,1.15533e-05,-2.21353e-05,-0.0225414
16.152,8.99986,8.99952,0.182462,0.00492269,0.0022535,-0.00386113,-1.14815e-05,2.4472e-05,-0.022557
16.162,8.99985,8.99952,0.182462,-0.00479985,-0.00221492,-0.00387478,1.15534e-05,-2.21353e-05,-0.0225714
16.172,8.99986,8.99952,0.182462,0.00492276,0.00225336,-0.00386114,-1.14815e-05,2.4472e-05,-0.022587
16.182,8.99985,8.99952,0.182462,-0.00479992,-0.00221479,-0.00387479,1.15535e-05,-2.21353e-05,-0.0226014
16.192,8.99986,8.99952,0.182462,0.00492283,0.00225323,-0.00386115,-1.14816e-05,2.44721e-05,-0.022617
16.202,8.99985,8.99952,0.182462,-0.00479998,-0.00221466,-0.0038748,1.15536e-05,-2.21353e-05,-0.0226314
16.212,8.99986,8.99952,0.182462,0.0049229,0.0022531,-0.00386116,-1.14817e-05,2.44721e-05,-0.022647
16.222,8.99985,8.99952,0.182462,-0.00480005,-0.00221453,-0.0038748,1.15537e-05,-2.21353e-05,-0.0226614
16.262,8.99985,8.99952,0.182462,-0.00480018,-0.00221428,-0.00387482,1.15539e-05,-2.21352e-05,-0.0227214
16.272,8.99986,8.99952,0.182462,0.0049231,0.0022527,-0.00386118,-1.1482e-05,2.44723e-05,-0.022737
16.282,8.99985,8.99951,0.182462,-0.00480024,-0.00221415,-0.00387483,1.1554e-05,-2.21352e-05,-0.0227514
16.292,8.99986,8.99952,0.182462,0.00492317,0.00225257,-0.00386119,-1.1482e-05,2.44723e-05,-0.022767
16.302,8.99985,8.99951,0.182462,-0.00480031,-0.00221402,-0.00387484,1.15541e-05,-2.21352e-05,-0.0227814
16.312,8.99986,8.99952,0.182462,0.00492324,0.00225244,-0.0038612,-1.14821e-05,2.44724e-05,-0.0227969
16.322,8.99985,8.99951,0.182462,-0.00480037,-0.00221389,-0.00387485,1.15542e-05,-2.21352e-05,-0.0228114
16.332,8.99986,8.99952,0.182462,0.00492331,0.0022523,-0.00386121,-1.14822e-05,2.44725e-05,-0.0228269
16.342,8.99985,8.99951,0.182462,-0.00480044,-0.00221376,-0.00387486,1.15543e-05,-2.21352e-05,-0.0228413
16.352,8.99986,8.99952,0.182462,0.00492338,0.00225217,-0.00386122,-1.14823e-05,2.44725e-05,-0.0228569
16.362,8.99985,8.99951,0.182462,-0.0048005,-0.00221363,-0.00387487,1.15544e-05,-2.21352e-05,-0.0228713
16.372,8.99986,8.99952,0.182462,0.00492345,0.00225204,-0.00386123,-1.14824e-05,2.44726e-05,-0.0228869
16.382,8.99985,8.99951,0.182462,-0.00480057,-0.0022135,-0.00387487,1.15545e-05,-2.21352e-05,-0.0229013
16.392,8.99986,8.99951,0.182462,0.00492352,0.00225191,-0.00386123,-1.14825e-05,2.44726e-05,-0.0229169
16.402,8.99985,8.99951,0.182462,-0.00480063,-0.00221337,-0.00387488,1.15546e-05,-2.21352e-05,-0.0229313
16.412,8.99985,8.99951,0.182462,0.00492359,0.00225177,-0.00386124,-1.14825e-05,2.44727e-05,-0.0229469
16.422,8.99985,8.99951,0.182462,-0.0048007,-0.00221324,-0.00387489,1.15547e-05,-2.21352e-05,-0.0229613
16.432,8.99985,8.99951,0.182462,0.00492366,0.00225164,-0.00386125,-1.14826e-05,2.44727e-05,-0.0229769
16.442,8.99985,8.99951,0.182462,-0.00480076,-0.00221311,-0.0038749,1.15548e-05,-2.21352e-05,-0.0229913
16.452,8.99985,8.99951,0.182462,0.00492373,0.00225151,-0.00386126,-1.14827e-05,2.44728e-05,-0.0230069
16.472,8.99985,8.99951,0.182462,0.0049238,0.00225137,-0.00386127,-1.14828e-05,2.44728e-05,-0.0230369
16.482,8.99985,8.99951,0.182462,-0.00480089,-0.00221286,-0.00387492,1.1555e-05,-2.21352e-05,-0.0230513
16.492,8.99985,8.99951,0.182462,0.00492387,0.00225124,-0.00386128,-1.14829e-05,2.44729e-05,-0.0230669
16.502,8.99985,8.99951,0.182462,-0.00480096,-0.00221273,-0.00387493,1.15551e-05,-2.21351e-05,-0.0230813
16.512,8.99985,8.99951,0.182462,0.00492393,0.00225111,-0.00386129,-1.1483e-05,2.44729e-05,-0.0230969
16.522,8.99985,8.99951,0.182462,-0.00480102,-0.0022126,-0.00387493,1.15552e-05,-2.21351e-05,-0.0231113
16.532,8.99985,8.99951,0.182462,0.004924,0.00225098,-0.0038613,-1.1483e-05,2.4473e-05,-0.0231269
16.542,8.99984,8.99951,0.182462,-0.00480109,-0.00221247,-0.00387494,1.15554e-05,-2.21351e-05,-0.0231413
16.552,8.99985,8.99951,0.182462,0.00492407,0.00225084,-0.0038613,-1.14831e-05,2.4473e-05,-0.0231569
16.562,8.99984,8.99951,0.182462,-0.00480115,-0.00221234,-0.00387495,1.15555e-05,-2.21351e-05,-0.0231713
16.572,8.99985,8.99951,0.182462,0.00492414,0.00225071,-0.00386131,-1.14832e-05,2.44731e-05,-0.0231869
16.582,8.99984,8.9995,0.182462,-0.00480122,-0.00221221,-0.00387496,1.15556e-05,-2.21351e-05,-0.0232013
16.592,8.99985,8.99951,0.182462,0.00492421,0.00225058,-0.00386132,-1.14833e-05,2.44731e-05,-0.0232168
16.602,8.99984,8.9995,0.182462,-0.00480128,-0.00221208,-0.00387497,1.15557e-05,-2.21351e-05,-0.0232313
16.612,8.99985,8.99951,0.182462,0.00492428,0.00225045,-0.00386133,-1.14834e-05,2.44732e-05,-0.0232468
16.622,8.99984,8.9995,0.182462,-0.00480135,-0.00221195,-0.00387498,1.15558e-05,-2.21351e-05,-0.0232612
16.632,8.99985,8.99951,0.182462,0.00492435,0.00225031,-0.00386134,-1.14835e-05,2.44733e-05,-0.0232768
16.642,8.99984,8.9995,0.182462,-0.00480141,-0.00221182,-0.00387499,1.15559e-05,-2.21351e-05,-0.0232912
16.652,8.99985,8.99951,0.182462,0.00492442,0.00225018,-0.00386135,-1.14835e-05,2.44733e-05,-0.0233068
16.662,8.99984,8.9995,0.182462,-0.00480148,-0.00221169,-0.003875,1.1556e-05,-2.21351e-05,-0.0233212
16.672,8.99985,8.99951,0.182462,0.00492449,0.00225005,-0.00386136,-1.14836e-05,2.44734e-05,-0.0233368
16.682,8.99984,8.9995,0.182462,-0.00480154,-0.00221157,-0.003875,1.15561e-05,-2.21351e-05,-0.0233512
16.692,8.99985,8.9995,0.182462,0.00492456,0.00224992,-0.00386137,-1.14837e-05,2.44734e-05,-0.0233668
16.702,8.99984,8.9995,0.182462,-0.00480161,-0.00221144,-0.00387501,1.15562e-05,-2.21351e-05,-0.0233812
16.712,8.99985,8.9995,0.182462,0.00492463,0.00224978,-0.00386137,-1.14838e-05,2.44735e-05,-0.0233968
16.722,8.99984,8.9995,0.182462,-0.00480167,-0.00221131,-0.00387502,1.15563e-05,-2.21351e-05,-0.0234112
16.732,8.99985,8.9995,0.182462,0.0049247,0.00224965,-0.00386138,-1.14839e-05,2.44735e-05,-0.0234268
16.742,8.99984,8.9995,0.182462,-0.00480174,-0.00221118,-0.00387503,1.15564e-05,-2.21351e-05,-0.0234412
16.752,8.99985,8.9995,0.182462,0.00492477,0.00224952,-0.00386139,-1.1484e-05,2.44736e-05,-0.0234568
16.762,8.99984,8.9995,0.182462,-0.0048018,-0.00221105,-0.00387504,1.15565e-05,-2.21351e-05,-0.0234712
16.772,8.99985,8.9995,0.182462,0.00492483,0.00224939,-0.0038614,-1.1484e-05,2.44736e-05,-0.0234868
16.782,8.99984,8.9995,0.182462,-0.00480187,-0.00221092,-0.00387505,1.15566e-05,-2.2135e-05,-0.0235012
16.792,8.99985,8.9995,0.182462,0.0049249,0.00224925,-0.00386141,-1.14841e-05,2.44737e-05,-0.0235167
16.802,8.99984,8.9995,0.182462,-0.00480193,-0.00221079,-0.00387506,1.15567e-05,-2.2135e-05,-0.0235312
16.812,8.99985,8.9995,0.182462,0.00492497,0.00224912,-0.00386142,-1.14842e-05,2.44737e-05,-0.0235467
16.822,8.99984,8.9995,0.182462,-0.004802,-0.00221066,-0.00387507,1.15568e-05,-2.2135e-05,-0.0235611
16.832,8.99985,8.9995,0.182462,0.00492504,0.00224899,-0.00386143,-1.14843e-05,2.44738e-05,-0.0235767
16.842,8.99984,8.9995,0.182462,-0.00480206,-0.00221053,-0.00387507,1.15569e-05,-2.2135e-05,-0.0235911
16.852,8.99985,8.9995,0.182462,0.00492511,0.00224886,-0.00386144,-1.14844e-05,2.44738e-05,-0.0236067
16.862,8.99984,8.9995,0.182462,-0.00480213,-0.0022104,-0.00387508,1.1557e-05,-2.2135e-05,-0.0236211
16.872,8.99985,8.9995,0.182462,0.00492518,0.00224872,-0.00386144,-1.14845e-05,2.44739e-05,-0.0236367
16.882,8.99984,8.99949,0.182462,-0.00480219,-0.00221027,-0.00387509,1.15571e-05,-2.2135e-05,-0.0236511
16.892,8.99985,8.9995,0.182462,0.00492525,0.00224859,-0.00386145,-1.14845e-05,2.44739e-05,-0.0236667
16.902,8.99984,8.99949,0.182462,-0.00480225,-0.00221015,-0.0038751,1.15572e-05,-2.2135e-05,-0.0236811
16.912,8.99985,8.9995,0.182462,0.00492532,0.00224846,-0.00386146,-1.14846e-05,2.4474e-05,-0.0236967
16.922,8.99984,8.99949,0.182462,-0.00480232,-0.00221002,-0.00387511,1.15573e-05,-2.2135e-05,-0.0237111
16.932,8.99985,8.9995,0.182462,0.00492539,0.00224833,-0.00386147,-1.14847e-05,2.44741e-05,-0.0237267
16.942,8.99984,8.99949,0.182462,-0.00480238,-0.00220989,-0.00387512,1.15575e-05,-2.2135e-05,-0.0237411
16.952,8.99985,8.9995,0.182462,0.00492546,0.00224819,-0.00386148,-1.14848e-05,2.44741e-05,-0.0237566
16.962,8.99984,8.99949,0.182462,-0.00480245,-0.00220976,-0.00387513,1.15576e-05,-2.2135e-05,-0.0237711
16.972,8.99985,8.9995,0.182462,0.00492553,0.00224806,-0.00386149,-1.14849e-05,2.44742e-05,-0.0237866
16.982,8.99984,8.99949,0.182462,-0.00480251,-0.00220963,-0.00387514,1.15577e-05,-2.2135e-05,-0.023801
16.992,8.99985,8.99949,0.182462,0.0049256,0.00224793,-0.0038615,-1.1485e-05,2.44742e-05,-0.0238166
17.002,8.99984,8.99949,0.182462,-0.00480258,-0.0022095,-0.00387514,1.15578e-05,-2.2135e-05,-0.023831
17.012,8.99985,8.99949,0.182462,0.00492566,0.0022478,-0.00386151,-1.1485e-05,2.44743e-05,-0.0238466
17.022,8.99984,8.99949,0.182462,-0.00480264,-0.00220937,-0.00387515,1.15579e-05,-2.2135e-05,-0.023861
17.032,8.99985,8.99949,0.182462,0.00492573,0.00224766,-0.00386151,-1.14851e-05,2.44743e-05,-0.0238766
17.042,8.99984,8.99949,0.182462,-0.00480271,-0.00220924,-0.00387516,1.1558e-05,-2.2135e-05,-0.023891
17.052,8.99985,8.99949,0.182462,0.0049258,0.00224753,-0.00386152,-1.14852e-05,2.44744e-05,-0.0239066
17.062,8.99984,8.99949,0.182462,-0.00480277,-0.00220911,-0.00387517,1.15581e-05,-2.21349e-05,-0.023921
17.072,8.99985,8.99949,0.182462,0.00492587,0.0022474,-0.00386153,-1.14853e-05,2.44744e-05,-0.0239366
17.082,8.99984,8.99949,0.182462,-0.00480284,-0.00220898,-0.00387518,1.15582e-05,-2.21349e-05,-0.023951
17.092,8.99985,8.99949,0.182462,0.00492594,0.00224727,-0.00386154,-1.14854e-05,2.44745e-05,-0.0239666
17.102,8.99984,8.99949,0.182462,-0.0048029,-0.00220885,-0.00387519,1.15583e-05,-2.21349e-05,-0.023981
17.112,8.99985,8.99949,0.182462,0.00492601,0.00224713,-0.00386155,-1.14854e-05,2.44745e-05,-0.0239965
17.122,8.99984,8.99949,0.182462,-0.00480297,-0.00220873,-0.0038752,1.15584e-05,-2.21349e-05,-0.0240109
17.132,8.99985,8.99949,0.182462,0.00492608,0.002247,-0.00386156,-1.14855e-05,2.44746e-05,-0.0240265
17.172,8.99985,8.99949,0.182462,0.00492622,0.00224674,-0.00386158,-1.14857e-05,2.44747e-05,-0.0240865
17.182,8.99984,8.99948,0.182462,-0.00480316,-0.00220834,-0.00387522,1.15587e-05,-2.21349e-05,-0.0241009
17.192,8.99985,8.99949,0.182462,0.00492629,0.0022466,-0.00386158,-1.14858e-05,2.44747e-05,-0.0241165
17.202,8.99984,8.99948,0.182462,-0.00480323,-0.00220821,-0.00387523,1.15588e-05,-2.21349e-05,-0.0241309
17.212,8.99985,8.99949,0.182462,0.00492636,0.00224647,-0.00386159,-1.14859e-05,2.44748e-05,-0.0241465
17.222,8.99984,8.99948,0.182462,-0.00480329,-0.00220808,-0.00387524,1.15589e-05,-2.21349e-05,-0.0241609
17.232,8.99985,8.99949,0.182462,0.00492642,0.00224634,-0.0038616,-1.14859e-05,2.44748e-05,-0.0241764
17.242,8.99984,8.99948,0.182462,-0.00480336,-0.00220795,-0.00387525,1.1559e-05,-2.21349e-05,-0.0241908
17.252,8.99985,8.99949,0.182462,0.00492649,0.00224621,-0.00386161,-1.1486e-05,2.44749e-05,-0.0242064
17.262,8.99984,8.99948,0.182462,-0.00480342,-0.00220782,-0.00387526,1.15591e-05,-2.21349e-05,-0.0242208
17.272,8.99985,8.99949,0.182462,0.00492656,0.00224607,-0.00386162,-1.14861e-05,2.4475e-05,-0.0242364
17.282,8.99984,8.99948,0.182462,-0.00480349,-0.00220769,-0.00387527,1.15592e-05,-2.21349e-05,-0.0242508
17.292,8.99985,8.99949,0.182462,0.00492663,0.00224594,-0.00386163,-1.14862e-05,2.4475e-05,-0.0242664
17.302,8.99984,8.99948,0.182462,-0.00480355,-0.00220756,-0.00387528,1.15593e-05,-2.21349e-05,-0.0242808
17.312,8.99985,8.99948,0.182462,0.0049267,0.00224581,-0.00386164,-1.14863e-05,2.44751e-05,-0.0242964
17.322,8.99984,8.99948,0.182462,-0.00480362,-0.00220743,-0.00387528,1.15594e-05,-2.21349e-05,-0.0243108
17.332,8.99985,8.99948,0.182462,0.00492677,0.00224568,-0.00386165,-1.14864e-05,2.44751e-05,-0.0243264
17.362,8.99979,8.99946,0.183813,-0.00318388,-0.000985387,0.159437,2.66678e-05,-0.000212308,-0.0243569
17.372,8.99975,8.99945,0.185957,-0.00323014,-0.000985676,0.259473,-2.29015e-05,-0.000254054,-0.0243628
17.382,8.99972,8.99944,0.189102,-0.00327805,-0.000971632,0.359474,-0.000122519,-0.000227273,-0.0243684
17.392,8.99969,8.99943,0.193247,-0.0033134,-0.000933543,0.459427,-0.000273229,-0.000128637,-0.0243737
17.402,8.99966,8.99943,0.19839,-0.0033218,-0.000861877,0.559318,-0.000472743,4.01157e-05,-0.0243788
17.412,8.99962,8.99942,0.204533,-0.00329195,-0.000746873,0.659137,-0.0007403,0.000204778,-0.0243837
17.422,8.99959,8.99941,0.211666,-0.00324965,-0.000568651,0.757067,-0.00115827,9.82171e-05,-0.0243881
17.432,8.99956,8.99941,0.219758,-0.00325432,-0.00029998,0.850773,-0.00171141,-0.000296323,-0.0243918
17.442,8.99952,8.99941,0.228761,-0.00333348,6.65189e-05,0.939665,-0.00224712,-0.000696646,-0.0243951
17.452,8.99949,8.99941,0.238626,-0.00347255,0.000514921,1.02392,-0.00267586,-0.000993391,-0.0243983
17.462,8.99945,8.99942,0.249309,-0.00365578,0.00101325,1.10376,-0.0029011,-0.00125205,-0.0244012
17.472,8.99942,8.99943,0.260768,-0.00387821,0.00152144,1.17942,-0.0029018,-0.00150214,-0.024404
17.482,8.99938,8.99945,0.272961,-0.00413868,0.00200183,1.25113,-0.00268266,-0.00176426,-0.0244065
17.492,8.99933,8.99947,0.285851,-0.00444249,0.00241826,1.31912,-0.00222843,-0.00208712,-0.0244089
17.502,8.99929,8.9995,0.299401,-0.00479976,0.00273742,1.38358,-0.00156208,-0.00247941,-0.0244112
17.512,8.99924,8.99952,0.313576,-0.00521963,0.00293325,1.44471,-0.000723743,-0.00292928,-0.0244136
17.522,8.99918,8.99955,0.328344,-0.00570577,0.00298856,1.50212,0.000211456,-0.00340275,-0.0244164
17.532,8.99912,8.99958,0.343664,-0.00625269,0.00290674,1.55571,0.00108635,-0.00382578,-0.0244196
17.562,8.99891,8.99966,0.392593,-0.00811483,0.00206977,1.69643,0.00279739,-0.00452602,-0.0244295
17.572,8.99882,8.99968,0.409783,-0.00875216,0.00169492,1.73685,0.00285329,-0.00454298,-0.0244323
17.582,8.99873,8.99969,0.427362,-0.0093706,0.00134295,1.77437,0.00254503,-0.00445029,-0.0244347
17.592,8.99863,8.99971,0.445297,-0.00995382,0.00105919,1.80849,0.00194163,-0.00430384,-0.0244368
17.602,8.99853,8.99971,0.463555,-0.0105066,0.000864658,1.83912,0.00127002,-0.00429671,-0.024439
17.612,8.99842,8.99972,0.482101,-0.0110544,0.000756172,1.86672,0.000640485,-0.00449902,-0.0244411
17.622,8.99831,8.99973,0.500909,-0.0116257,0.000722302,1.89169,9.57353e-05,-0.00491373,-0.0244429
17.632,8.99819,8.99974,0.519951,-0.0122429,0.000749184,1.91394,-0.000337446,-0.00547963,-0.0244442
17.642,8.99806,8.99975,0.539202,-0.0129132,0.000818148,1.93356,-0.000600289,-0.00603059,-0.0244451
17.652,8.99793,8.99975,0.558635,-0.0136297,0.000907455,1.95093,-0.000683758,-0.00648449,-0.0244458
17.672,8.99764,8.99977,0.597972,-0.0151443,0.00107122,1.97968,-0.000452915,-0.0070067,-0.0244473
17.682,8.99749,8.99978,0.617832,-0.015912,0.00113686,1.99081,-0.000514616,-0.00714042,-0.0244481
17.692,8.99732,8.9998,0.637793,-0.0166782,0.00122275,2.00014,-0.000901768,-0.00723635,-0.0244488
17.702,8.99715,8.99981,0.657839,-0.0174401,0.001363,2.00796,-0.00163265,-0.00730353,-0.0244494
17.712,8.99697,8.99982,0.677952,-0.0181868,0.00158652,2.0133,-0.00265288,-0.00736036,-0.0244496
17.722,8.99679,8.99984,0.698102,-0.018917,0.00190947,2.0158,-0.00381313,-0.0074706,-0.0244492
17.732,8.99659,8.99986,0.718264,-0.0196411,0.00233756,2.01603,-0.00503058,-0.00765258,-0.0244479
17.742,8.99639,8.99989,0.738418,-0.020369,0.00287146,2.01447,-0.00626217,-0.00790095,-0.0244455
17.752,8.99619,8.99992,0.758548,-0.0211089,0.00350975,2.01151,-0.00748551,-0.00820061,-0.0244422
17.762,8.99597,8.99996,0.77864,-0.0218645,0.00424703,2.00716,-0.00864654,-0.00853626,-0.0244378
17.772,8.99575,9.00001,0.798682,-0.0226396,0.00506871,2.00154,-0.00958067,-0.00890053,-0.0244325
17.782,8.99552,9.00006,0.818659,-0.0234294,0.00594161,1.99392,-0.0102326,-0.00928088,-0.0244266
17.792,8.99528,9.00013,0.838546,-0.0242317,0.00683626,1.98405,-0.0106061,-0.0096619,-0.0244204
17.802,8.99503,9.0002,0.858324,-0.0250464,0.00772982,1.97209,-0.010728,-0.0100307,-0.0244144
17.812,8.99478,9.00028,0.877971,-0.0258736,0.00860515,1.95831,-0.0106337,-0.0103772,-0.0244088
17.822,8.99451,9.00037,0.897472,-0.0267151,0.00945166,1.9432,-0.010358,-0.0106926,-0.0244039
17.832,8.99424,9.00047,0.916817,-0.0275718,0.0102609,1.92718,-0.00993318,-0.010969,-0.0243998
17.842,8.99396,9.00058,0.935995,-0.0284356,0.0110194,1.90986,-0.00938808,-0.0111998,-0.0243967
17.872,8.99307,9.00094,0.992404,-0.0310398,0.0129405,1.85151,-0.00727274,-0.0115674,-0.0243936
17.882,8.99275,9.00107,1.01081,-0.0319042,0.0134567,1.83064,-0.00646796,-0.0115706,-0.0243944
17.892,8.99243,9.00121,1.02899,-0.0327583,0.0139073,1.80906,-0.00563711,-0.0115067,-0.024396
17.902,8.9921,9.00135,1.04696,-0.0336007,0.0142937,1.78708,-0.00479088,-0.0113738,-0.0243984
17.912,8.99176,9.0015,1.06471,-0.0344172,0.0146122,1.76393,-0.00393854,-0.0111713,-0.0244012
17.922,8.99141,9.00164,1.08222,-0.0352003,0.0148633,1.73935,-0.00308906,-0.0108971,-0.0244045
17.932,8.99105,9.00179,1.09947,-0.0359506,0.0150512,1.71384,-0.00224878,-0.0105519,-0.024408
17.942,8.99069,9.00195,1.11647,-0.0366677,0.0151791,1.68781,-0.00142258,-0.0101377,-0.0244116
17.952,8.99032,9.0021,1.1332,-0.0373505,0.0152493,1.66159,-0.000614475,-0.00965731,-0.0244151
17.962,8.98994,9.00225,1.14967,-0.0379902,0.0152632,1.63473,0.000172,-0.00911202,-0.0244185
17.972,8.98956,9.0024,1.16586,-0.0385817,0.0152231,1.60711,0.000933695,-0.00849805,-0.0244216
17.982,8.98917,9.00255,1.18178,-0.0391242,0.0151314,1.57913,0.0016681,-0.00781628,-0.0244244
17.992,8.98877,9.0027,1.19742,-0.0396111,0.0149913,1.55043,0.00237317,-0.00706711,-0.0244267
18.002,8.98838,9.00285,1.21276,-0.0400378,0.0148056,1.52094,0.00304741,-0.00624359,-0.0244284
18.012,8.98797,9.003,1.22781,-0.0404032,0.014576,1.49109,0.00368943,-0.00534665,-0.0244294
18.022,8.98757,9.00314,1.24255,-0.0407045,0.0143039,1.46118,0.00429786,-0.0043814,-0.0244298
18.032,8.98716,9.00329,1.257,-0.0409387,0.0139903,1.43149,0.00487134,-0.00335481,-0.0244294
18.042,8.98675,9.00342,1.27115,-0.041102,0.013636,1.40221,0.0054086,-0.00227457,-0.0244284
18.052,8.98634,9.00356,1.28501,-0.0411893,0.0132461,1.37281,0.00590877,-0.00114474,-0.0244266
18.062,8.98593,9.00369,1.29858,-0.041197,0.0128241,1.3431,0.00637213,4.12063e-05,-0.0244241
18.072,8.98551,9.00381,1.31185,-0.041122,0.0123707,1.31339,0.00679839,0.00128117,-0.0244209
18.082,8.9851,9.00394,1.32482,-0.0409644,0.0118829,1.28393,0.00744491,0.0022901,-0.024419
18.092,8.98469,9.00405,1.3375,-0.0407759,0.0113143,1.25491,0.00927733,0.00201469,-0.0244266
18.102,8.98429,9.00416,1.34989,-0.0406631,0.0105722,1.22648,0.0126014,0.00010077,-0.0244519
18.112,8.98388,9.00426,1.362,-0.0407438,0.00957071,1.19759,0.0173469,-0.00340377,-0.0245062
18.122,8.98347,9.00435,1.37381,-0.0411193,0.00823423,1.16779,0.0232763,-0.00826059,-0.0246018
18.132,8.98306,9.00442,1.38532,-0.0418713,0.00649302,1.13752,0.030096,-0.0141665,-0.0247484
18.162,8.98173,9.0045,1.41804,-0.0469454,-0.00163653,1.04682,0.0532255,-0.0353593,-0.0255155
18.172,8.98125,9.00447,1.42834,-0.049663,-0.00537202,1.01659,0.0611489,-0.0428527,-0.0258658
18.182,8.98074,9.00439,1.43834,-0.0528855,-0.00959552,0.985913,0.0689615,-0.0503154,-0.0262502
18.192,8.98019,9.00427,1.44803,-0.0566186,-0.0143143,0.955101,0.0765819,-0.0576539,-0.0266596
18.202,8.9796,9.0041,1.45741,-0.0608653,-0.0195333,0.924414,0.0839492,-0.0647991,-0.0270851
18.212,8.97896,9.00387,1.46648,-0.0656266,-0.0252548,0.894056,0.0910191,-0.0717007,-0.0275184
18.222,8.97828,9.00358,1.47526,-0.0709012,-0.0314783,0.864184,0.0977603,-0.0783229,-0.0279519
18.232,8.97754,9.00323,1.48374,-0.0766855,-0.0382009,0.83492,0.104151,-0.0846412,-0.0283792
18.242,8.97674,9.00281,1.49193,-0.0829441,-0.0453825,0.806032,0.110181,-0.090642,-0.0287948
18.252,8.97587,9.00232,1.49983,-0.0896519,-0.052996,0.777443,0.115854,-0.0963243,-0.029195
18.262,8.97494,9.00174,1.50745,-0.0968052,-0.0610393,0.749306,0.121169,-0.101686,-0.0295764
18.272,8.97393,9.00109,1.51479,-0.104399,-0.0695076,0.721738,0.126126,-0.106726,-0.0299357
18.282,8.97284,9.00034,1.52186,-0.112389,-0.0783538,0.694516,0.130728,-0.111445,-0.0302706
18.292,8.97167,8.99951,1.52866,-0.120749,-0.087548,0.667562,0.134991,-0.115856,-0.0305801
18.302,8.97041,8.99858,1.53519,-0.129475,-0.0970896,0.641029,0.138919,-0.119963,-0.0308629
18.312,8.96907,8.99756,1.54145,-0.138504,-0.106909,0.614559,0.142521,-0.123774,-0.031118
18.322,8.96763,8.99643,1.54745,-0.147798,-0.116968,0.588028,0.145822,-0.127309,-0.0313466
18.332,8.9661,8.99521,1.55319,-0.157367,-0.127277,0.561655,0.148828,-0.130573,-0.0315482
18.342,8.96448,8.99388,1.55866,-0.167216,-0.137842,0.535612,0.151541,-0.133569,-0.0317216
18.362,8.96092,8.99089,1.56883,-0.187747,-0.159741,0.485029,0.156078,-0.138747,-0.0319775
18.372,8.95898,8.98923,1.57355,-0.198421,-0.171065,0.460674,0.157895,-0.140924,-0.032057
18.382,8.95694,8.98746,1.57803,-0.209355,-0.182625,0.437031,0.159408,-0.142823,-0.0321022
18.392,8.95478,8.98557,1.58227,-0.220456,-0.194323,0.413615,0.160623,-0.144448,-0.0321132
18.402,8.95252,8.98356,1.58628,-0.231674,-0.206107,0.390219,0.161567,-0.145825,-0.032093
18.412,8.95014,8.98143,1.59005,-0.243017,-0.217986,0.367029,0.16225,-0.14696,-0.032042
18.422,8.94764,8.97919,1.59359,-0.254489,-0.229963,0.344191,0.162671,-0.147853,-0.0319597
18.432,8.94504,8.97682,1.59691,-0.266087,-0.242038,0.321823,0.162828,-0.1485,-0.0318449
18.442,8.94231,8.97433,1.60001,-0.277758,-0.254154,0.299704,0.162718,-0.148899,-0.0316968
18.452,8.93947,8.97173,1.60288,-0.289471,-0.26628,0.277761,0.162355,-0.149061,-0.0315169
18.462,8.93651,8.969,1.60554,-0.301229,-0.278418,0.256144,0.161743,-0.148986,-0.0313053
18.472,8.93343,8.96614,1.60799,-0.313031,-0.290568,0.234968,0.16088,-0.148671,-0.0310619
18.482,8.93024,8.96317,1.61022,-0.324868,-0.302724,0.214325,0.159767,-0.148113,-0.0307869
18.492,8.92692,8.96008,1.61225,-0.336707,-0.31485,0.194125,0.158409,-0.147315,-0.0304815
18.502,8.92349,8.95686,1.61409,-0.348522,-0.326923,0.174349,0.156819,-0.146285,-0.0301483
18.512,8.91994,8.95353,1.61572,-0.360308,-0.338935,0.155081,0.155005,-0.145029,-0.0297897
18.522,8.91627,8.95007,1.61717,-0.372052,-0.350878,0.136387,0.152976,-0.143553,-0.0294083
18.532,8.91249,8.9465,1.61843,-0.383742,-0.362738,0.118313,0.150742,-0.141862,-0.0290066
18.542,8.90859,8.94281,1.61952,-0.395361,-0.374502,0.100893,0.148314,-0.139964,-0.0285876
18.572,8.89619,8.93104,1.62177,-0.429452,-0.408881,0.0515111,0.140022,-0.133167,-0.0272655
18.582,8.89184,8.92689,1.6222,-0.440511,-0.419993,0.0360645,0.136979,-0.130581,-0.0268155
18.592,8.88737,8.92263,1.62248,-0.4514,-0.430916,0.0211844,0.133818,-0.127853,-0.0263658
18.602,8.8828,8.91826,1.62261,-0.462105,-0.441639,0.00688927,0.130551,-0.124996,-0.0259193
18.612,8.87812,8.91378,1.6226,-0.472608,-0.452145,-0.00686661,0.127191,-0.122019,-0.0254785
18.622,8.87334,8.9092,1.62246,-0.482892,-0.462418,-0.0201057,0.123751,-0.118938,-0.0250461
18.632,8.86846,8.90452,1.62219,-0.492948,-0.472452,-0.0328139,0.120244,-0.115765,-0.0246243
18.642,8.86347,8.89975,1.62179,-0.502765,-0.482238,-0.0449846,0.116682,-0.112509,-0.024215
18.652,8.85839,8.89487,1.62128,-0.512334,-0.491769,-0.0566175,0.113074,-0.109183,-0.0238197
18.662,8.85322,8.8899,1.62065,-0.521645,-0.501035,-0.0677267,0.10943,-0.105797,-0.0234398
18.672,8.84795,8.88484,1.61992,-0.530689,-0.510029,-0.0783249,0.105761,-0.102361,-0.0230765
18.682,8.84259,8.87969,1.61908,-0.539456,-0.518744,-0.0884206,0.102075,-0.0988847,-0.0227306
18.692,8.83715,8.87446,1.61814,-0.547942,-0.527176,-0.0980198,0.0983805,-0.0953786,-0.0224029
18.702,8.83163,8.86914,1.61711,-0.556139,-0.53532,-0.107134,0.0946855,-0.0918509,-0.0220937
18.712,8.82602,8.86375,1.61599,-0.564041,-0.543171,-0.115779,0.0909971,-0.0883102,-0.0218034
18.722,8.82034,8.85827,1.61479,-0.571645,-0.550725,-0.123974,0.0873221,-0.0847646,-0.0215321
18.732,8.81458,8.85273,1.6135,-0.578947,-0.557982,-0.13171,0.0836668,-0.0812216,-0.0212797
18.772,8.79087,8.82986,1.60767,-0.605099,-0.584011,-0.158288,0.0693434,-0.0672035,-0.0204536
18.782,8.78479,8.82398,1.60605,-0.610866,-0.589766,-0.16391,0.06586,-0.0637669,-0.0202908
18.792,8.77865,8.81806,1.60438,-0.616323,-0.59522,-0.169175,0.0624239,-0.0603685,-0.0201444
18.802,8.77246,8.81208,1.60266,-0.621473,-0.600375,-0.17407,0.0590388,-0.0570129,-0.0200138
18.812,8.76622,8.80605,1.6009,-0.626317,-0.605235,-0.178602,0.0557074,-0.053704,-0.0198983
18.822,8.75993,8.79997,1.59909,-0.630858,-0.609801,-0.182805,0.0524325,-0.0504457,-0.0197971
18.832,8.7536,8.79385,1.59724,-0.6351,-0.614078,-0.186648,0.049217,-0.0472419,-0.0197095
18.842,8.74722,8.78768,1.59535,-0.639046,-0.61807,-0.190129,0.0460624,-0.0440951,-0.0196347
18.852,8.74081,8.78148,1.59343,-0.6427,-0.621779,-0.193293,0.0429712,-0.0410084,-0.019572
18.862,8.73437,8.77524,1.59149,-0.646063,-0.625209,-0.196178,0.0399457,-0.0379851,-0.0195207
18.872,8.72789,8.76898,1.58951,-0.649139,-0.628362,-0.198815,0.0369882,-0.0350282,-0.0194801
18.882,8.72138,8.76268,1.58751,-0.651936,-0.631245,-0.201186,0.0341004,-0.0321401,-0.0194493
18.892,8.71485,8.75635,1.58548,-0.654459,-0.633864,-0.203293,0.0312837,-0.0293228,-0.0194278
18.902,8.70829,8.75,1.58344,-0.656712,-0.636223,-0.205171,0.0285394,-0.0265783,-0.0194147
18.912,8.70171,8.74362,1.58138,-0.658701,-0.638327,-0.206853,0.025869,-0.0239083,-0.0194094
18.922,8.69512,8.73723,1.5793,-0.660433,-0.640183,-0.208365,0.0232737,-0.0213147,-0.0194112
18.932,8.68851,8.73082,1.57721,-0.661917,-0.6418,-0.209565,0.0207544,-0.0187986,-0.0194196
18.942,8.68188,8.72439,1.57511,-0.663162,-0.643185,-0.210399,0.0183108,-0.0163601,-0.0194337
18.982,8.65529,8.69859,1.56667,-0.665855,-0.646516,-0.211195,0.00931139,-0.00740464,-0.0195375
18.992,8.64863,8.69212,1.56456,-0.665993,-0.64683,-0.210809,0.00725921,-0.00537032,-0.0195726
19.002,8.64197,8.68565,1.56245,-0.665932,-0.64695,-0.21023,0.00528715,-0.00341914,-0.0196103
19.012,8.63531,8.67918,1.56035,-0.665679,-0.646883,-0.209451,0.00339563,-0.00155158,-0.0196503
19.022,8.62865,8.67271,1.55826,-0.665244,-0.646637,-0.208484,0.00158492,0.000232061,-0.0196921
19.032,8.622,8.66625,1.55618,-0.664633,-0.64622,-0.207376,-0.000144801,0.00193156,-0.0197354
19.042,8.61536,8.65979,1.55412,-0.663855,-0.645638,-0.206111,-0.00179343,0.00354685,-0.0197796
19.052,8.60873,8.65334,1.55206,-0.662919,-0.6449,-0.204696,-0.00336098,0.00507796,-0.0198246
19.062,8.60211,8.64689,1.55002,-0.661832,-0.644014,-0.203173,-0.00484757,0.00652507,-0.01987
19.072,8.59549,8.64046,1.548,-0.660603,-0.642988,-0.201578,-0.00625342,0.00788849,-0.0199155
19.082,8.5889,8.63403,1.54599,-0.659242,-0.641829,-0.199939,-0.00757891,0.00916865,-0.0199608
19.092,8.58231,8.62762,1.544,-0.657756,-0.640545,-0.198278,-0.00882452,0.0103661,-0.0200057
19.102,8.57574,8.62122,1.54203,-0.656153,-0.639144,-0.196464,-0.00999066,0.0114815,-0.0200499
19.112,8.56919,8.61484,1.54008,-0.654441,-0.637633,-0.194443,-0.0110774,0.0125151,-0.0200933
19.122,8.56266,8.60847,1.53815,-0.652627,-0.636019,-0.192276,-0.0120851,0.0134673,-0.0201356
19.132,8.55614,8.60212,1.53623,-0.650722,-0.634312,-0.190009,-0.0130145,0.0143391,-0.0201767
19.152,8.54317,8.58947,1.53248,-0.646666,-0.630644,-0.18516,-0.0146413,0.0158451,-0.0202548
19.162,8.53671,8.58318,1.53065,-0.644533,-0.6287,-0.182628,-0.0153403,0.0164812,-0.0202915
19.172,8.53028,8.5769,1.52884,-0.64234,-0.626691,-0.179972,-0.0159644,0.0170409,-0.0203265
19.182,8.52387,8.57065,1.52705,-0.640093,-0.624626,-0.177174,-0.0165141,0.017525,-0.0203598
19.192,8.51748,8.56441,1.52529,-0.637801,-0.622511,-0.174286,-0.0169905,0.0179349,-0.0203914
19.202,8.51111,8.5582,1.52357,-0.635473,-0.620354,-0.171328,-0.0173949,0.0182718,-0.0204211
19.212,8.50477,8.55201,1.52187,-0.633116,-0.618163,-0.168322,-0.0177285,0.0185374,-0.020449
19.222,8.49845,8.54584,1.5202,-0.630737,-0.615944,-0.165245,-0.0179928,0.0187332,-0.020475
19.232,8.49216,8.53969,1.51857,-0.628343,-0.613704,-0.162095,-0.018189,0.0188607,-0.0204993
19.242,8.48589,8.53357,1.51697,-0.625941,-0.61145,-0.158913,-0.0183186,0.0189215,-0.0205217
19.272,8.46722,8.51533,1.51235,-0.618764,-0.604675,-0.149325,-0.0183254,0.0187235,-0.0205787
19.282,8.46105,8.50929,1.51087,-0.616402,-0.602433,-0.14613,-0.0182063,0.0185375,-0.0205945
19.292,8.4549,8.50328,1.50943,-0.614065,-0.600209,-0.142971,-0.0180301,0.0182953,-0.0206088
19.302,8.44877,8.49729,1.50801,-0.611761,-0.59801,-0.139867,-0.0177993,0.0179997,-0.0206218
19.312,8.44266,8.49132,1.50663,-0.609491,-0.595837,-0.136706,-0.017516,0.0176532,-0.0206334
19.322,8.43658,8.48538,1.50528,-0.607261,-0.593697,-0.133444,-0.0171823,0.017258,-0.0206439
19.332,8.43052,8.47945,1.50397,-0.605076,-0.591594,-0.130127,-0.0168005,0.0168167,-0.0206534
19.342,8.42448,8.47355,1.50269,-0.602941,-0.589534,-0.126792,-0.0163735,0.0163324,-0.0206619
19.352,8.41846,8.46766,1.50144,-0.600861,-0.587522,-0.123471,-0.0159042,0.0158081,-0.0206696
19.362,8.41247,8.4618,1.50022,-0.598841,-0.585561,-0.120185,-0.0153959,0.0152471,-0.0206766
19.372,8.40649,8.45595,1.49904,-0.596882,-0.583654,-0.116837,-0.0148513,0.0146523,-0.020683
19.382,8.40053,8.45013,1.49789,-0.594988,-0.581805,-0.11339,-0.0142729,0.0140263,-0.020689
19.392,8.39459,8.44432,1.49677,-0.593161,-0.580016,-0.10989,-0.0136635,0.0133722,-0.0206946
19.402,8.38867,8.43853,1.49569,-0.591405,-0.578291,-0.106377,-0.0130263,0.0126928,-0.0207
19.412,8.38276,8.43275,1.49465,-0.589724,-0.576634,-0.102881,-0.0123642,0.0119915,-0.0207053
19.422,8.37688,8.427,1.49364,-0.588119,-0.575046,-0.0994254,-0.0116804,0.0112712,-0.0207105
19.432,8.371,8.42125,1.49266,-0.586592,-0.57353,-0.0960302,-0.0109778,0.010535,-0.0207158
19.442,8.36515,8.41553,1.49172,-0.585144,-0.572088,-0.0927095,-0.0102592,0.00978565,-0.0207212
19.452,8.3593,8.40981,1.49081,-0.583778,-0.57072,-0.0894741,-0.00952756,0.00902594,-0.0207267
19.462,8.35347,8.40411,1.48993,-0.582493,-0.569428,-0.0863321,-0.00878539,0.00825855,-0.0207325
19.472,8.34765,8.39843,1.48909,-0.58129,-0.568213,-0.0832889,-0.00803527,0.00748601,-0.0207386
19.482,8.34185,8.39275,1.48827,-0.580169,-0.567075,-0.0803483,-0.00727965,0.00671073,-0.020745
19.492,8.33605,8.38709,1.48748,-0.57913,-0.566013,-0.0775123,-0.00652086,0.00593501,-0.0207517
19.502,8.33026,8.38143,1.48672,-0.578173,-0.565029,-0.0747819,-0.00576106,0.00516115,-0.0207588
19.512,8.32449,8.37579,1.48599,-0.577297,-0.564122,-0.0721567,-0.00500237,0.00439123,-0.0207664
19.522,8.31872,8.37015,1.48528,-0.576501,-0.563291,-0.0696359,-0.00424682,0.00362722,-0.0207743
19.562,8.29571,8.34767,1.4827,-0.5741,-0.560713,-0.0598184,-0.00129336,0.000665471,-0.0208097
19.572,8.28997,8.34207,1.48211,-0.573688,-0.56025,-0.0573197,-0.000580666,-4.34689e-05,-0.0208195
19.582,8.28424,8.33647,1.48155,-0.57335,-0.559857,-0.0548421,0.000118536,-0.000736842,-0.0208295
19.592,8.27851,8.33087,1.48102,-0.573081,-0.559533,-0.0523445,0.000802799,-0.00141329,-0.0208399
19.602,8.27278,8.32528,1.48051,-0.572882,-0.559276,-0.0498136,0.00147083,-0.00207149,-0.0208505
19.612,8.26705,8.31969,1.48002,-0.57275,-0.559085,-0.0472764,0.00212138,-0.00271025,-0.0208614
19.622,8.26132,8.3141,1.47956,-0.572683,-0.558957,-0.0447375,0.00275326,-0.00332851,-0.0208724
19.632,8.25559,8.30851,1.47913,-0.572678,-0.55889,-0.0422062,0.0033654,-0.00392526,-0.0208836
19.642,8.24987,8.30292,1.47872,-0.572734,-0.558883,-0.0397011,0.00395681,-0.00449966,-0.020895
19.652,8.24414,8.29733,1.47834,-0.572847,-0.558933,-0.0372369,0.00452656,-0.00505093,-0.0209064
19.662,8.23841,8.29174,1.47798,-0.573015,-0.559038,-0.0348107,0.00507387,-0.00557842,-0.0209179
19.672,8.23268,8.28615,1.47765,-0.573236,-0.559195,-0.0324247,0.005598,-0.00608148,-0.0209294
19.682,8.22695,8.28056,1.47733,-0.573507,-0.559402,-0.0300897,0.00609833,-0.0065596,-0.0209408
19.692,8.22121,8.27496,1.47705,-0.573825,-0.559657,-0.0277938,0.00657429,-0.00701234,-0.0209523
19.702,8.21547,8.26936,1.47678,-0.574188,-0.559957,-0.025534,0.00702543,-0.00743926,-0.0209636
19.712,8.20972,8.26376,1.47654,-0.574592,-0.560299,-0.0233208,0.00745133,-0.00784005,-0.0209748
19.722,8.20398,8.25816,1.47632,-0.575035,-0.560681,-0.0211624,0.00785168,-0.00821452,-0.0209859
19.732,8.19822,8.25255,1.47612,-0.575515,-0.561101,-0.0190506,0.00822621,-0.00856252,-0.0209967
19.772,8.17516,8.23006,1.47552,-0.577738,-0.563099,-0.0110988,0.00946353,-0.00968845,-0.0210381
19.782,8.16938,8.22443,1.47542,-0.578357,-0.563665,-0.00923202,0.00970756,-0.00990373,-0.0210478
19.792,8.16359,8.21879,1.47534,-0.578995,-0.564253,-0.00741497,0.00992566,-0.0100928,-0.0210572
19.802,8.1578,8.21314,1.47527,-0.57965,-0.56486,-0.00565182,0.010118,-0.010256,-0.0210663
19.812,8.152,8.20749,1.47523,-0.580318,-0.565483,-0.00394543,0.0102848,-0.0103936,-0.0210751
19.822,8.14619,8.20183,1.4752,-0.580999,-0.56612,-0.00229759,0.0104264,-0.010506,-0.0210836
19.832,8.14038,8.19617,1.47518,-0.581688,-0.566768,-0.00070529,0.0105431,-0.0105937,-0.0210917
19.842,8.13456,8.1905,1.47518,-0.582383,-0.567425,0.000833015,0.0106353,-0.0106572,-0.0210996
19.852,8.12873,8.18482,1.4752,-0.583083,-0.568089,0.00231987,0.0107034,-0.0106969,-0.0211071
19.862,8.12289,8.17914,1.47523,-0.583784,-0.568757,0.00375654,0.010748,-0.0107133,-0.0211144
19.872,8.11705,8.17344,1.47528,-0.584484,-0.569427,0.00514206,0.0107696,-0.0107071,-0.0211213
19.882,8.1112,8.16775,1.47533,-0.585181,-0.570096,0.00647674,0.0107688,-0.0106788,-0.0211279
19.892,8.10535,8.16204,1.47541,-0.585873,-0.570764,0.00776102,0.0107462,-0.0106292,-0.0211343
19.902,8.09948,8.15633,1.47549,-0.586558,-0.571426,0.00899524,0.0107024,-0.010559,-0.0211404
19.912,8.09362,8.15061,1.47559,-0.587233,-0.572082,0.0101794,0.0106382,-0.010469,-0.0211462
19.922,8.08774,8.14489,1.4757,-0.587897,-0.57273,0.0113141,0.0105545,-0.01036,-0.0211517
19.932,8.08186,8.13916,1.47581,-0.588548,-0.573367,0.0124007,0.0104519,-0.0102328,-0.021157
19.942,8.07597,8.13342,1.47594,-0.589183,-0.573993,0.0134407,0.0103314,-0.0100883,-0.0211621
19.952,8.07007,8.12768,1.47608,-0.589802,-0.574605,0.0144356,0.0101937,-0.00992754,-0.021167
19.962,8.06417,8.12193,1.47623,-0.590403,-0.575201,0.015387,0.0100399,-0.00975142,-0.0211717
19.972,8.05826,8.11617,1.47639,-0.590985,-0.575781,0.0162964,0.00987074,-0.00956093,-0.0211762
19.982,8.05235,8.11041,1.47656,-0.591545,-0.576342,0.0171656,0.00968719,-0.00935708,-0.0211806
19.992,8.04643,8.10464,1.47674,-0.592083,-0.576885,0.0179961,0.00949021,-0.00914088,-0.0211849
20.002,8.04051,8.09887,1.47692,-0.592598,-0.577406,0.0187826,0.00928077,-0.00891331,-0.021189
20.012,8.03458,8.0931,1.47711,-0.593088,-0.577906,0.0195236,0.00905997,-0.00867533,-0.0211931
20.022,8.02865,8.08731,1.47731,-0.593553,-0.578383,0.0202209,0.00882881,-0.00842792,-0.021197
20.032,8.02271,8.08153,1.47752,-0.593992,-0.578836,0.0208767,0.00858831,-0.00817208,-0.0212009
20.042,8.01677,8.07574,1.47773,-0.594403,-0.579264,0.0214947,0.00833944,-0.0079088,-0.0212048
20.052,8.01082,8.06994,1.47795,-0.594787,-0.579668,0.0220705,0.00808315,-0.00763909,-0.0212086
20.062,8.00487,8.06414,1.47817,-0.595143,-0.580045,0.0226035,0.00782048,-0.0073639,-0.0212124
20.072,7.99892,8.05834,1.4784,-0.59547,-0.580397,0.0230984,0.00755237,-0.0070842,-0.0212162
20.082,7.99296,8.05254,1.47863,-0.595768,-0.580721,0.0235595,0.00727973,-0.00680095,-0.02122
20.092,7.987,8.04673,1.47887,-0.596037,-0.581019,0.0239818,0.00700348,-0.00651507,-0.0212238
20.102,7.98104,8.04091,1.47911,-0.596276,-0.581289,0.0243644,0.00672457,-0.00622747,-0.0212277
20.112,7.97508,8.0351,1.47936,-0.596486,-0.581532,0.0247127,0.00644387,-0.00593902,-0.0212315
20.122,7.96911,8.02928,1.47961,-0.596667,-0.581747,0.0250314,0.00616222,-0.00565059,-0.0212354
20.132,7.96314,8.02347,1.47986,-0.596818,-0.581934,0.025315,0.00588044,-0.00536303,-0.0212394
20.162,7.94523,8.006,1.48063,-0.597098,-0.582333,0.0259692,0.00504249,-0.00451329,-0.0212515
20.172,7.93926,8.00018,1.48089,-0.597134,-0.582412,0.0261317,0.0047681,-0.00423685,-0.0212556
20.182,7.93329,7.99435,1.48115,-0.597143,-0.582464,0.0262721,0.00449734,-0.00396499,-0.0212598
20.192,7.92732,7.98853,1.48142,-0.597125,-0.582491,0.0263883,0.00423085,-0.00369836,-0.0212641
20.202,7.92135,7.9827,1.48168,-0.59708,-0.582492,0.0264806,0.00396927,-0.00343757,-0.0212684
20.212,7.91538,7.97688,1.48195,-0.597009,-0.582468,0.0265534,0.00371318,-0.0031832,-0.0212727
20.222,7.90941,7.97105,1.48221,-0.596913,-0.58242,0.0266105,0.00346314,-0.00293581,-0.0212771
20.232,7.90344,7.96523,1.48248,-0.596793,-0.582348,0.0266366,0.00321968,-0.00269589,-0.0212816
20.242,7.89747,7.95941,1.48275,-0.596649,-0.582253,0.0266263,0.0029834,-0.00246387,-0.021286
20.252,7.89151,7.95358,1.48301,-0.596483,-0.582136,0.0265873,0.00275477,-0.00224015,-0.0212906
20.262,7.88554,7.94776,1.48328,-0.596294,-0.581997,0.0265261,0.00253421,-0.00202514,-0.0212951
20.272,7.87958,7.94195,1.48354,-0.596085,-0.581838,0.0264481,0.00232208,-0.00181924,-0.0212997
20.282,7.87362,7.93613,1.48381,-0.595856,-0.581659,0.0263472,0.00211873,-0.00162278,-0.0213043
20.292,7.86766,7.93031,1.48407,-0.595608,-0.581461,0.0262222,0.00192451,-0.00143604,-0.021309
20.302,7.86171,7.9245,1.48433,-0.595342,-0.581245,0.0260795,0.0017397,-0.00125928,-0.0213136
20.312,7.85576,7.91869,1.48459,-0.595059,-0.581013,0.025924,0.00156456,-0.00109274,-0.0213183
20.322,7.84981,7.91288,1.48485,-0.59476,-0.580764,0.0257485,0.00139928,-0.000936631,-0.021323
20.332,7.84386,7.90707,1.48511,-0.594447,-0.5805,0.0255511,0.00124411,-0.00079108,-0.0213276
20.342,7.83792,7.90127,1.48536,-0.594119,-0.580222,0.0253381,0.0010992,-0.000656216,-0.0213323
20.352,7.83198,7.89547,1.48561,-0.59378,-0.579931,0.0251148,0.000964667,-0.000532151,-0.021337
20.362,7.82605,7.88967,1.48586,-0.593428,-0.579628,0.0248777,0.000840588,-0.000418963,-0.0213416
20.372,7.82011,7.88388,1.48611,-0.593067,-0.579314,0.0246267,0.000727051,-0.000316674,-0.0213463
20.382,7.81418,7.87808,1.48635,-0.592696,-0.57899,0.0243536,0.000624103,-0.000225278,-0.0213509
20.392,7.80826,7.8723,1.4866,-0.592317,-0.578657,0.0240565,0.000531806,-0.0001447,-0.0213555
20.402,7.80234,7.86651,1.48683,-0.591931,-0.578316,0.0237431,0.000450143,-7.48832e-05,-0.0213601
20.412,7.79642,7.86073,1.48707,-0.591538,-0.577968,0.0234195,0.000379046,-1.57676e-05,-0.0213647
20.422,7.79051,7.85495,1.4873,-0.591141,-0.577614,0.0230855,0.00031842,3.27329e-05,-0.0213692
20.432,7.7846,7.84918,1.48753,-0.590741,-0.577256,0.0227426,0.000268164,7.07487e-05,-0.0213737
20.442,7.77869,7.84341,1.48776,-0.590337,-0.576893,0.0223905,0.000228144,9.84265e-05,-0.0213782
20.452,7.77279,7.83764,1.48798,-0.589931,-0.576528,0.0220304,0.000198216,0.000115952,-0.0213827
20.462,7.7669,7.83188,1.4882,-0.589525,-0.57616,0.0216673,0.000178194,0.000123514,-0.0213871
20.472,7.761,7.82612,1.48841,-0.589119,-0.575792,0.021305,0.000167864,0.000121314,-0.0213915
20.482,7.75511,7.82036,1.48862,-0.588714,-0.575423,0.0209464,0.000166988,0.000109574,-0.0213959
20.492,7.74923,7.81461,1.48883,-0.588311,-0.575056,0.0205856,0.000175319,8.85525e-05,-0.0214003
20.502,7.74335,7.80886,1.48903,-0.587911,-0.57469,0.0202205,0.000192628,5.85658e-05,-0.0214046
20.512,7.73747,7.80312,1.48923,-0.587515,-0.574326,0.0198458,0.000218651,1.99385e-05,-0.0214089
20.522,7.7316,7.79738,1.48943,-0.587124,-0.573966,0.0194605,0.000253132,-2.69582e-05,-0.0214132
20.532,7.72573,7.79164,1.48962,-0.586738,-0.57361,0.0190701,0.000295758,-8.17775e-05,-0.0214174
20.572,7.70229,7.76872,1.49035,-0.585265,-0.572241,0.0174817,0.000540672,-0.000373088,-0.0214342
20.582,7.69644,7.763,1.49053,-0.584918,-0.571916,0.0170822,0.000618662,-0.000461993,-0.0214384
20.592,7.69059,7.75728,1.49069,-0.58458,-0.571599,0.0166874,0.000702564,-0.000556544,-0.0214425
20.602,7.68475,7.75157,1.49086,-0.584252,-0.571291,0.0162967,0.000791962,-0.000656342,-0.0214466
20.612,7.67891,7.74586,1.49102,-0.583935,-0.570992,0.0159109,0.000886451,-0.000760968,-0.0214507
20.622,7.67307,7.74015,1.49118,-0.583629,-0.570703,0.0155322,0.000985609,-0.000870012,-0.0214548
20.632,7.66723,7.73444,1.49133,-0.583334,-0.570423,0.0150585,0.00108904,-0.000983051,-0.0214589
20.642,7.6614,7.72874,1.49148,-0.583051,-0.570154,0.0144444,0.0011964,-0.00109963,-0.021463
20.652,7.65557,7.72304,1.49162,-0.58278,-0.569895,0.013724,0.00130731,-0.00121932,-0.021467
20.662,7.64975,7.71734,1.49175,-0.582521,-0.569648,0.0129256,0.00142136,-0.00134172,-0.0214711
20.672,7.64392,7.71165,1.49188,-0.582275,-0.569411,0.0120719,0.00153814,-0.00146639,-0.0214752
20.682,7.6381,7.70596,1.49199,-0.582041,-0.569186,0.0111816,0.0016573,-0.00159288,-0.0214792
20.692,7.63228,7.70027,1.4921,-0.58182,-0.568973,0.0102698,0.00177843,-0.00172075,-0.0214832
20.702,7.62647,7.69458,1.4922,-0.581612,-0.568771,0.00934844,0.00190113,-0.00184963,-0.0214873
20.712,7.62065,7.68889,1.49228,-0.581418,-0.568581,0.00842729,0.00202497,-0.00197914,-0.0214913
20.722,7.61484,7.68321,1.49236,-0.581236,-0.568404,0.00751397,0.00214956,-0.00210891,-0.0214953
20.732,7.60903,7.67752,1.49243,-0.581067,-0.568238,0.00661451,0.00227452,-0.00223856,-0.0214993
20.762,7.5916,7.66048,1.49259,-0.58064,-0.567815,0.00404039,0.00264795,-0.0026232,-0.0215113
20.772,7.5858,7.6548,1.49263,-0.580523,-0.567697,0.00323268,0.00277078,-0.00274886,-0.0215153
20.782,7.57999,7.64913,1.49266,-0.580419,-0.567592,0.0024528,0.00289222,-0.00287271,-0.0215193
20.792,7.57419,7.64345,1.49268,-0.580327,-0.567498,0.00170153,0.00301199,-0.00299444,-0.0215232
20.802,7.56838,7.63778,1.49269,-0.580248,-0.567416,0.000979251,0.00312979,-0.00311374,-0.0215272
20.812,7.56258,7.6321,1.4927,-0.58018,-0.567345,0.000286042,0.00324536,-0.00323035,-0.0215311
20.822,7.55678,7.62643,1.49269,-0.580124,-0.567285,-0.000378275,0.0033584,-0.00334401,-0.021535
20.832,7.55098,7.62076,1.49269,-0.58008,-0.567236,-0.00101408,0.00346865,-0.00345451,-0.0215389
20.842,7.54518,7.61509,1.49267,-0.580046,-0.567198,-0.00162189,0.00357585,-0.00356164,-0.0215428
20.852,7.53938,7.60941,1.49265,-0.580023,-0.567169,-0.00220237,0.00367977,-0.0036652,-0.0215466
20.862,7.53358,7.60374,1.49263,-0.58001,-0.567151,-0.00275624,0.00378017,-0.00376502,-0.0215505
20.872,7.52778,7.59807,1.4926,-0.580008,-0.567142,-0.00328431,0.00387685,-0.00386094,-0.0215543
20.882,7.52198,7.5924,1.49256,-0.580014,-0.567142,-0.00378742,0.00396964,-0.00395278,-0.021558
20.892,7.51618,7.58673,1.49252,-0.58003,-0.567151,-0.00426643,0.00405839,-0.0040404,-0.0215618
20.902,7.51038,7.58106,1.49248,-0.580054,-0.567169,-0.00472224,0.00414295,-0.00412367,-0.0215655
20.912,7.50458,7.57539,1.49243,-0.580087,-0.567194,-0.00515573,0.00422326,-0.0042024,-0.0215692
20.922,7.49878,7.56971,1.49237,-0.580127,-0.567227,-0.0055678,0.00429923,-0.00427649,-0.0215729
20.952,7.48137,7.55269,1.49219,-0.580288,-0.567366,-0.00668412,0.00450019,-0.00447006,-0.0215837
20.962,7.47557,7.54702,1.49212,-0.580354,-0.567425,-0.00701908,0.00455794,-0.00452488,-0.0215872
20.972,7.46976,7.54135,1.49205,-0.580426,-0.567489,-0.00733681,0.00461099,-0.00457482,-0.0215907
20.982,7.46396,7.53567,1.49197,-0.580502,-0.567558,-0.00763809,0.00465929,-0.00461988,-0.0215941
20.992,7.45815,7.52999,1.4919,-0.580582,-0.567631,-0.00792365,0.00470282,-0.00466009,-0.0215975
21.002,7.45235,7.52432,1.49181,-0.580666,-0.567708,-0.00819423,0.00474161,-0.00469544,-0.0216009
21.012,7.44654,7.51864,1.49173,-0.580753,-0.567789,-0.00845051,0.00477568,-0.00472596,-0.0216043
21.022,7.44073,7.51296,1.49165,-0.580843,-0.567872,-0.00869315,0.00480504,-0.00475171,-0.0216076
21.032,7.43492,7.50728,1.49156,-0.580936,-0.567958,-0.0089228,0.00482972,-0.00477277,-0.0216108
21.042,7.42911,7.5016,1.49147,-0.58103,-0.568047,-0.00914006,0.00484982,-0.00478916,-0.021614
21.072,7.41168,7.48456,1.49118,-0.581319,-0.56832,-0.00972324,0.00488324,-0.00481131,-0.0216235
21.082,7.40586,7.47887,1.49109,-0.581416,-0.568412,-0.00989655,0.00488574,-0.00481,-0.0216266
21.092,7.40005,7.47319,1.49099,-0.581513,-0.568505,-0.0100602,0.00488413,-0.0048045,-0.0216296
21.102,7.39423,7.4675,1.49088,-0.581609,-0.568597,-0.0102145,0.00487851,-0.00479496,-0.0216326
21.112,7.38842,7.46182,1.49078,-0.581703,-0.568688,-0.0103601,0.004869,-0.00478152,-0.0216356
21.122,7.3826,7.45613,1.49068,-0.581796,-0.568778,-0.0104973,0.00485572,-0.00476434,-0.0216385
21.132,7.37678,7.45044,1.49057,-0.581887,-0.568866,-0.0106265,0.00483883,-0.00474357,-0.0216414
21.142,7.37096,7.44475,1.49046,-0.581976,-0.568953,-0.0107481,0.00481846,-0.00471937,-0.0216443
21.152,7.36514,7.43906,1.49036,-0.582062,-0.569038,-0.0108625,0.00479476,-0.00469194,-0.0216471
21.162,7.35932,7.43337,1.49025,-0.582146,-0.56912,-0.0109701,0.00476785,-0.00466147,-0.0216499
21.172,7.3535,7.42768,1.49014,-0.582226,-0.569199,-0.0110711,0.0047379,-0.00462814,-0.0216527
21.182,7.34767,7.42199,1.49002,-0.582302,-0.569275,-0.0111659,0.00470511,-0.00459212,-0.0216555
21.192,7.34185,7.41629,1.48991,-0.582375,-0.569348,-0.0112548,0.00466964,-0.00455358,-0.0216582
21.202,7.33603,7.4106,1.4898,-0.582443,-0.569417,-0.0113381,0.00463167,-0.00451272,-0.0216609
21.212,7.3302,7.40491,1.48969,-0.582508,-0.569483,-0.011416,0.00459139,-0.00446973,-0.0216636
21.222,7.32438,7.39921,1.48957,-0.582568,-0.569544,-0.0114889,0.00454896,-0.0044248,-0.0216662
21.232,7.31855,7.39351,1.48946,-0.582623,-0.569602,-0.0115569,0.00450456,-0.00437813,-0.0216688
21.242,7.31272,7.38782,1.48934,-0.582674,-0.569655,-0.0116203,0.00445846,-0.00432984,-0.0216715
21.252,7.3069,7.38212,1.48922,-0.582719,-0.569703,-0.0116793,0.00441083,-0.00428012,-0.0216741
21.272,7.29524,7.37073,1.48899,-0.582797,-0.569787,-0.0114261,0.00431149,-0.00417688,-0.0216792
21.282,7.28941,7.36503,1.48888,-0.582828,-0.569823,-0.0111007,0.00425996,-0.00412355,-0.0216817
21.292,7.28359,7.35933,1.48877,-0.582855,-0.569854,-0.0106815,0.00420739,-0.00406936,-0.0216842
21.302,7.27776,7.35363,1.48867,-0.582876,-0.56988,-0.0101888,0.00415398,-0.00401454,-0.0216867
21.312,7.27193,7.34793,1.48857,-0.582892,-0.569901,-0.00964012,0.00409992,-0.00395931,-0.0216892
21.322,7.2661,7.34223,1.48847,-0.582903,-0.569917,-0.00905127,0.00404542,-0.00390391,-0.0216917
21.332,7.26027,7.33653,1.48839,-0.582908,-0.569928,-0.00843317,0.00399067,-0.00384854,-0.0216942
21.342,7.25444,7.33084,1.48831,-0.582908,-0.569934,-0.00779535,0.00393586,-0.0037934,-0.0216966
21.352,7.24861,7.32514,1.48823,-0.582902,-0.569934,-0.00714688,0.00388116,-0.00373868,-0.0216991
21.362,7.24278,7.31944,1.48816,-0.582891,-0.56993,-0.00649501,0.00382675,-0.00368457,-0.0217015
21.382,7.23113,7.30804,1.48805,-0.582852,-0.569904,-0.00517925,0.00371951,-0.00357871,-0.0217063
21.392,7.2253,7.30234,1.488,-0.582825,-0.569884,-0.00452259,0.00366708,-0.00352716,-0.0217088
21.402,7.21947,7.29664,1.48796,-0.582793,-0.569859,-0.00387322,0.00361564,-0.00347672,-0.0217112
21.412,7.21364,7.29094,1.48792,-0.582755,-0.569829,-0.00323471,0.00356529,-0.00342753,-0.0217135
21.422,7.20781,7.28524,1.48789,-0.582713,-0.569794,-0.00260632,0.00351615,-0.00337973,-0.0217159
21.432,7.20199,7.27955,1.48787,-0.582666,-0.569754,-0.00198857,0.00346839,-0.00333338,-0.0217183
21.442,7.19616,7.27385,1.48785,-0.582615,-0.56971,-0.00138312,0.00342211,-0.00328857,-0.0217207
