timestamp,x,y,z,vx,vy,vz,roll,pitch,yaw
14.719,8.99987,-9.00044,0.182462,0.00491837,0.00226173,-0.00386059,-1.14763e-05,2.44686e-05,-0.0206907
14.729,8.99986,-9.00044,0.182462,-0.0047958,-0.00222295,-0.00387423,1.15468e-05,-2.21358e-05,-0.0207052
14.739,8.99987,-9.00044,0.182462,0.00491844,0.0022616,-0.0038606,-1.14764e-05,2.44687e-05,-0.0207208
14.749,8.99986,-9.00044,0.182462,-0.00479587,-0.00222282,-0.00387424,1.15469e-05,-2.21358e-05,-0.0207352
14.759,8.99987,-9.00044,0.182462,0.00491851,0.00226147,-0.0038606,-1.14765e-05,2.44687e-05,-0.0207508
14.769,8.99986,-9.00044,0.182462,-0.00479593,-0.00222269,-0.00387425,1.1547e-05,-2.21358e-05,-0.0207652
14.779,8.99987,-9.00044,0.182462,0.00491857,0.00226134,-0.00386061,-1.14766e-05,2.44688e-05,-0.0207808
14.789,8.99986,-9.00044,0.182462,-0.004796,-0.00222256,-0.00387426,1.15471e-05,-2.21358e-05,-0.0207952
14.799,8.99987,-9.00044,0.182462,0.00491864,0.0022612,-0.00386062,-1.14766e-05,2.44688e-05,-0.0208108
14.809,8.99986,-9.00044,0.182462,-0.00479606,-0.00222243,-0.00387427,1.15472e-05,-2.21357e-05,-0.0208252
14.819,8.99987,-9.00044,0.182462,0.00491871,0.00226107,-0.00386063,-1.14767e-05,2.44689e-05,-0.0208408
14.829,8.99986,-9.00044,0.182462,-0.00479613,-0.0022223,-0.00387428,1.15473e-05,-2.21357e-05,-0.0208552
14.849,8.99986,-9.00044,0.182462,-0.00479619,-0.00222217,-0.00387429,1.15474e-05,-2.21357e-05,-0.0208852
14.859,8.99987,-9.00044,0.182462,0.00491885,0.00226081,-0.00386065,-1.14769e-05,2.4469e-05,-0.0209008
14.869,8.99986,-9.00044,0.182462,-0.00479626,-0.00222204,-0.0038743,1.15476e-05,-2.21357e-05,-0.0209152
14.879,8.99987,-9.00044,0.182462,0.00491892,0.00226067,-0.00386066,-1.1477e-05,2.4469e-05,-0.0209308
14.889,8.99986,-9.00045,0.182462,-0.00479632,-0.00222192,-0.0038743,1.15477e-05,-2.21357e-05,-0.0209452
14.899,8.99987,-9.00044,0.182462,0.00491899,0.00226054,-0.00386067,-1.14771e-05,2.44691e-05,-0.0209608
14.909,8.99986,-9.00045,0.182462,-0.00479639,-0.00222179,-0.00387431,1.15478e-05,-2.21357e-05,-0.0209752
14.919,8.99987,-9.00044,0.182462,0.00491906,0.00226041,-0.00386067,-1.14771e-05,2.44692e-05,-0.0209908
14.929,8.99986,-9.00045,0.182462,-0.00479645,-0.00222166,-0.00387432,1.15479e-05,-2.21357e-05,-0.0210053
14.939,8.99987,-9.00044,0.182462,0.00491913,0.00226028,-0.00386068,-1.14772e-05,2.44692e-05,-0.0210209
14.949,8.99986,-9.00045,0.182462,-0.00479652,-0.00222153,-0.00387433,1.1548e-05,-2.21357e-05,-0.0210353
14.959,8.99987,-9.00044,0.182462,0.0049192,0.00226014,-0.00386069,-1.14773e-05,2.44693e-05,-0.0210509
14.969,8.99986,-9.00045,0.182462,-0.00479658,-0.0022214,-0.00387434,1.15481e-05,-2.21357e-05,-0.0210653
14.979,8.99987,-9.00044,0.182462,0.00491927,0.00226001,-0.0038607,-1.14774e-05,2.44693e-05,-0.0210809
14.989,8.99986,-9.00045,0.182462,-0.00479665,-0.00222127,-0.00387435,1.15482e-05,-2.21357e-05,-0.0210953
14.999,8.99987,-9.00045,0.182462,0.00491934,0.00225988,-0.00386071,-1.14775e-05,2.44694e-05,-0.0211109
15.009,8.99986,-9.00045,0.182462,-0.00479671,-0.00222114,-0.00387436,1.15483e-05,-2.21357e-05,-0.0211253
15.019,8.99987,-9.00045,0.182462,0.00491941,0.00225975,-0.00386072,-1.14775e-05,2.44694e-05,-0.0211409
15.029,8.99986,-9.00045,0.182462,-0.00479678,-0.00222101,-0.00387437,1.15484e-05,-2.21357e-05,-0.0211553
15.039,8.99987,-9.00045,0.182462,0.00491948,0.00225961,-0.00386073,-1.14776e-05,2.44695e-05,-0.0211709
15.049,8.99986,-9.00045,0.182462,-0.00479684,-0.00222088,-0.00387437,1.15485e-05,-2.21356e-05,-0.0211853
15.059,8.99987,-9.00045,0.182462,0.00491955,0.00225948,-0.00386074,-1.14777e-05,2.44695e-05,-0.0212009
15.069,8.99986,-9.00045,0.182462,-0.00479691,-0.00222075,-0.00387438,1.15486e-05,-2.21356e-05,-0.0212153
15.079,8.99987,-9.00045,0.182462,0.00491962,0.00225935,-0.00386074,-1.14778e-05,2.44696e-05,-0.0212309
15.089,8.99986,-9.00045,0.182462,-0.00479697,-0.00222063,-0.00387439,1.15487e-05,-2.21356e-05,-0.0212453
15.099,8.99987,-9.00045,0.182462,0.00491969,0.00225922,-0.00386075,-1.14779e-05,2.44696e-05,-0.0212609
15.109,8.99986,-9.00045,0.182462,-0.00479704,-0.0022205,-0.0038744,1.15488e-05,-2.21356e-05,-0.0212753
15.119,8.99987,-9.00045,0.182462,0.00491976,0.00225908,-0.00386076,-1.1478e-05,2.44697e-05,-0.0212909
15.129,8.99986,-9.00045,0.182462,-0.00479711,-0.00222037,-0.00387441,1.15489e-05,-2.21356e-05,-0.0213053
15.159,8.99987,-9.00045,0.182462,0.0049199,0.00225882,-0.00386078,-1.14781e-05,2.44698e-05,-0.0213509
15.169,8.99986,-9.00045,0.182462,-0.00479724,-0.00222011,-0.00387443,1.15491e-05,-2.21356e-05,-0.0213653
15.179,8.99987,-9.00045,0.182462,0.00491997,0.00225869,-0.00386079,-1.14782e-05,2.44699e-05,-0.0213809
15.189,8.99986,-9.00046,0.182462,-0.0047973,-0.00221998,-0.00387444,1.15492e-05,-2.21356e-05,-0.0213954
15.199,8.99987,-9.00045,0.182462,0.00492004,0.00225856,-0.0038608,-1.14783e-05,2.44699e-05,-0.0214109
15.209,8.99986,-9.00046,0.182462,-0.00479737,-0.00221985,-0.00387444,1.15493e-05,-2.21356e-05,-0.0214254
15.219,8.99987,-9.00045,0.182462,0.00492011,0.00225842,-0.00386081,-1.14784e-05,2.447e-05,-0.0214409
15.229,8.99986,-9.00046,0.182462,-0.00479743,-0.00221972,-0.00387445,1.15494e-05,-2.21356e-05,-0.0214554
15.239,8.99987,-9.00045,0.182462,0.00492017,0.00225829,-0.00386081,-1.14785e-05,2.447e-05,-0.021471
15.249,8.99986,-9.00046,0.182462,-0.0047975,-0.00221959,-0.00387446,1.15496e-05,-2.21356e-05,-0.0214854
15.269,8.99986,-9.00046,0.182462,-0.00479756,-0.00221946,-0.00387447,1.15497e-05,-2.21356e-05,-0.0215154
15.279,8.99986,-9.00045,0.182462,0.00492031,0.00225803,-0.00386083,-1.14786e-05,2.44701e-05,-0.021531
15.289,8.99986,-9.00046,0.182462,-0.00479763,-0.00221933,-0.00387448,1.15498e-05,-2.21355e-05,-0.0215454
15.299,8.99986,-9.00046,0.182462,0.00492038,0.00225789,-0.00386084,-1.14787e-05,2.44702e-05,-0.021561
15.309,8.99986,-9.00046,0.182462,-0.00479769,-0.00221921,-0.00387449,1.15499e-05,-2.21355e-05,-0.0215754
15.319,8.99986,-9.00046,0.182462,0.00492045,0.00225776,-0.00386085,-1.14788e-05,2.44702e-05,-0.021591
15.329,8.99986,-9.00046,0.182462,-0.00479776,-0.00221908,-0.0038745,1.155e-05,-2.21355e-05,-0.0216054
15.339,8.99986,-9.00046,0.182462,0.00492052,0.00225763,-0.00386086,-1.14789e-05,2.44703e-05,-0.021621
15.349,8.99986,-9.00046,0.182462,-0.00479782,-0.00221895,-0.00387451,1.15501e-05,-2.21355e-05,-0.0216354
15.359,8.99986,-9.00046,0.182462,0.00492059,0.0022575,-0.00386087,-1.1479e-05,2.44703e-05,-0.021651
15.369,8.99986,-9.00046,0.182462,-0.00479789,-0.00221882,-0.00387451,1.15502e-05,-2.21355e-05,-0.0216654
15.379,8.99986,-9.00046,0.182462,0.00492066,0.00225736,-0.00386088,-1.1479e-05,2.44704e-05,-0.021681
15.389,8.99985,-9.00046,0.182462,-0.00479795,-0.00221869,-0.00387452,1.15503e-05,-2.21355e-05,-0.0216954
15.399,8.99986,-9.00046,0.182462,0.00492073,0.00225723,-0.00386088,-1.14791e-05,2.44705e-05,-0.021711
15.409,8.99985,-9.00046,0.182462,-0.00479802,-0.00221856,-0.00387453,1.15504e-05,-2.21355e-05,-0.0217254
15.419,8.99986,-9.00046,0.182462,0.0049208,0.0022571,-0.00386089,-1.14792e-05,2.44705e-05,-0.021741
15.429,8.99985,-9.00046,0.182462,-0.00479808,-0.00221843,-0.00387454,1.15505e-05,-2.21355e-05,-0.0217554
15.439,8.99986,-9.00046,0.182462,0.00492087,0.00225697,-0.0038609,-1.14793e-05,2.44706e-05,-0.021771
15.469,8.99985,-9.00046,0.182462,-0.00479821,-0.00221817,-0.00387456,1.15507e-05,-2.21355e-05,-0.0218154
15.479,8.99986,-9.00046,0.182462,0.00492101,0.0022567,-0.00386092,-1.14795e-05,2.44707e-05,-0.021831
15.489,8.99985,-9.00047,0.182462,-0.00479828,-0.00221804,-0.00387457,1.15508e-05,-2.21355e-05,-0.0218454
15.499,8.99986,-9.00046,0.182462,0.00492108,0.00225657,-0.00386093,-1.14795e-05,2.44707e-05,-0.021861
15.509,8.99985,-9.00047,0.182462,-0.00479834,-0.00221792,-0.00387458,1.15509e-05,-2.21355e-05,-0.0218754
15.519,8.99986,-9.00046,0.182462,0.00492115,0.00225644,-0.00386094,-1.14796e-05,2.44708e-05,-0.021891
15.529,8.99985,-9.00047,0.182462,-0.00479841,-0.00221779,-0.00387458,1.1551e-05,-2.21355e-05,-0.0219054
15.539,8.99986,-9.00046,0.182462,0.00492122,0.0022563,-0.00386094,-1.14797e-05,2.44708e-05,-0.021921
15.549,8.99985,-9.00047,0.182462,-0.00479847,-0.00221766,-0.00387459,1.15511e-05,-2.21354e-05,-0.0219354
15.559,8.99986,-9.00046,0.182462,0.00492129,0.00225617,-0.00386095,-1.14798e-05,2.44709e-05,-0.021951
15.569,8.99985,-9.00047,0.182462,-0.00479854,-0.00221753,-0.0038746,1.15512e-05,-2.21354e-05,-0.0219654
15.579,8.99986,-9.00046,0.182462,0.00492136,0.00225604,-0.00386096,-1.14799e-05,2.44709e-05,-0.021981
15.589,8.99985,-9.00047,0.182462,-0.0047986,-0.0022174,-0.00387461,1.15513e-05,-2.21354e-05,-0.0219954
15.599,8.99986,-9.00047,0.182462,0.00492143,0.00225591,-0.00386097,-1.148e-05,2.4471e-05,-0.022011
15.609,8.99985,-9.00047,0.182462,-0.00479867,-0.00221727,-0.00387462,1.15514e-05,-2.21354e-05,-0.0220254
15.619,8.99986,-9.00047,0.182462,0.00492149,0.00225577,-0.00386098,-1.148e-05,2.44711e-05,-0.022041
15.629,8.99985,-9.00047,0.182462,-0.00479873,-0.00221714,-0.00387463,1.15515e-05,-2.21354e-05,-0.0220554
15.639,8.99986,-9.00047,0.182462,0.00492156,0.00225564,-0.00386099,-1.14801e-05,2.44711e-05,-0.022071
15.659,8.99986,-9.00047,0.182462,0.00492163,0.00225551,-0.003861,-1.14802e-05,2.44712e-05,-0.022101
15.669,8.99985,-9.00047,0.182462,-0.00479886,-0.00221688,-0.00387465,1.15518e-05,-2.21354e-05,-0.0221154
15.679,8.99986,-9.00047,0.182462,0.0049217,0.00225538,-0.00386101,-1.14803e-05,2.44712e-05,-0.022131
15.689,8.99985,-9.00047,0.182462,-0.00479893,-0.00221675,-0.00387465,1.15519e-05,-2.21354e-05,-0.0221454
15.699,8.99986,-9.00047,0.182462,0.00492177,0.00225524,-0.00386101,-1.14804e-05,2.44713e-05,-0.022161
15.709,8.99985,-9.00047,0.182462,-0.00479899,-0.00221663,-0.00387466,1.1552e-05,-2.21354e-05,-0.0221754
15.719,8.99986,-9.00047,0.182462,0.00492184,0.00225511,-0.00386102,-1.14805e-05,2.44713e-05,-0.022191
15.729,8.99985,-9.00047,0.182462,-0.00479906,-0.0022165,-0.00387467,1.15521e-05,-2.21354e-05,-0.0222054
15.739,8.99986,-9.00047,0.182462,0.00492191,0.00225498,-0.00386103,-1.14805e-05,2.44714e-05,-0.022221
15.749,8.99985,-9.00047,0.182462,-0.00479912,-0.00221637,-0.00387468,1.15522e-05,-2.21354e-05,-0.0222354
15.769,8.99985,-9.00047,0.182462,-0.00479919,-0.00221624,-0.00387469,1.15523e-05,-2.21354e-05,-0.0222654
15.779,8.99986,-9.00047,0.182462,0.00492205,0.00225471,-0.00386105,-1.14807e-05,2.44715e-05,-0.022281
15.789,8.99985,-9.00048,0.182462,-0.00479925,-0.00221611,-0.0038747,1.15524e-05,-2.21353e-05,-0.0222954
15.799,8.99986,-9.00047,0.182462,0.00492212,0.00225458,-0.00386106,-1.14808e-05,2.44715e-05,-0.022311
15.809,8.99985,-9.00048,0.182462,-0.00479932,-0.00221598,-0.00387471,1.15525e-05,-2.21353e-05,-0.0223254
15.819,8.99986,-9.00047,0.182462,0.00492219,0.00225445,-0.00386107,-1.14809e-05,2.44716e-05,-0.022341
15.829,8.99985,-9.00048,0.182462,-0.00479938,-0.00221585,-0.00387471,1.15526e-05,-2.21353e-05,-0.0223554
15.839,8.99986,-9.00047,0.182462,0.00492226,0.00225432,-0.00386108,-1.1481e-05,2.44716e-05,-0.022371
15.849,8.99985,-9.00048,0.182462,-0.00479945,-0.00221572,-0.00387472,1.15527e-05,-2.21353e-05,-0.0223854
15.859,8.99986,-9.00047,0.182462,0.00492233,0.00225418,-0.00386108,-1.1481e-05,2.44717e-05,-0.022401
15.879,8.99986,-9.00047,0.182462,0.0049224,0.00225405,-0.00386109,-1.14811e-05,2.44717e-05,-0.022431
15.889,8.99985,-9.00048,0.182462,-0.00479958,-0.00221546,-0.00387474,1.15529e-05,-2.21353e-05,-0.0224454
15.899,8.99986,-9.00048,0.182462,0.00492247,0.00225392,-0.0038611,-1.14812e-05,2.44718e-05,-0.022461
15.909,8.99985,-9.00048,0.182462,-0.00479964,-0.00221533,-0.00387475,1.1553e-05,-2.21353e-05,-0.0224754
15.919,8.99986,-9.00048,0.182462,0.00492254,0.00225379,-0.00386111,-1.14813e-05,2.44719e-05,-0.022491
15.929,8.99985,-9.00048,0.182462,-0.00479971,-0.00221521,-0.00387476,1.15531e-05,-2.21353e-05,-0.0225054
15.939,8.99986,-9.00048,0.182462,0.0049226,0.00225365,-0.00386112,-1.14814e-05,2.44719e-05,-0.022521
15.949,8.99985,-9.00048,0.182462,-0.00479977,-0.00221508,-0.00387477,1.15532e-05,-2.21353e-05,-0.0225354
15.959,8.99986,-9.00048,0.182462,0.00492267,0.00225352,-0.00386113,-1.14814e-05,2.4472e-05,-0.022551
15.969,8.99985,-9.00048,0.182462,-0.00479984,-0.00221495,-0.00387478,1.15533e-05,-2.21353e-05,-0.0225654
15.979,8.99986,-9.00048,0.182462,0.00492274,0.00225339,-0.00386114,-1.14815e-05,2.4472e-05,-0.022581
15.989,8.99985,-9.00048,0.182462,-0.0047999,-0.00221482,-0.00387478,1.15534e-05,-2.21353e-05,-0.0225954
15.999,8.99986,-9.00048,0.182462,0.00492281,0.00225326,-0.00386115,-1.14816e-05,2.44721e-05,-0.022611
16.009,8.99985,-9.00048,0.182462,-0.00479997,-0.00221469,-0.00387479,1.15535e-05,-2.21353e-05,-0.0226254
16.019,8.99986,-9.00048,0.182462,0.00492288,0.00225312,-0.00386115,-1.14817e-05,2.44721e-05,-0.022641
16.029,8.99985,-9.00048,0.182462,-0.00480003,-0.00221456,-0.0038748,1.15537e-05,-2.21353e-05,-0.0226554
16.039,8.99986,-9.00048,0.182462,0.00492295,0.00225299,-0.00386116,-1.14818e-05,2.44722e-05,-0.022671
16.049,8.99985,-9.00048,0.182462,-0.0048001,-0.00221443,-0.00387481,1.15538e-05,-2.21352e-05,-0.0226854
16.059,8.99986,-9.00048,0.182462,0.00492302,0.00225286,-0.00386117,-1.14819e-05,2.44722e-05,-0.022701
16.069,8.99985,-9.00048,0.182462,-0.00480016,-0.0022143,-0.00387482,1.15539e-05,-2.21352e-05,-0.0227154
16.079,8.99986,-9.00048,0.182462,0.00492309,0.00225273,-0.00386118,-1.14819e-05,2.44723e-05,-0.022731
16.089,8.99985,-9.00049,0.182462,-0.00480023,-0.00221417,-0.00387483,1.1554e-05,-2.21352e-05,-0.0227454
16.099,8.99986,-9.00048,0.182462,0.00492316,0.00225259,-0.00386119,-1.1482e-05,2.44723e-05,-0.022761
16.109,8.99985,-9.00049,0.182462,-0.00480029,-0.00221404,-0.00387484,1.15541e-05,-2.21352e-05,-0.0227754
16.119,8.99986,-9.00048,0.182462,0.00492323,0.00225246,-0.0038612,-1.14821e-05,2.44724e-05,-0.0227909
16.129,8.99985,-9.00049,0.182462,-0.00480036,-0.00221391,-0.00387485,1.15542e-05,-2.21352e-05,-0.0228054
16.139,8.99986,-9.00048,0.182462,0.0049233,0.00225233,-0.00386121,-1.14822e-05,2.44724e-05,-0.0228209
16.159,8.99986,-9.00048,0.182462,0.00492337,0.0022522,-0.00386122,-1.14823e-05,2.44725e-05,-0.0228509
16.169,8.99985,-9.00049,0.182462,-0.00480049,-0.00221366,-0.00387486,1.15544e-05,-2.21352e-05,-0.0228653
16.179,8.99986,-9.00048,0.182462,0.00492344,0.00225206,-0.00386122,-1.14824e-05,2.44726e-05,-0.0228809
16.189,8.99985,-9.00049,0.182462,-0.00480055,-0.00221353,-0.00387487,1.15545e-05,-2.21352e-05,-0.0228953
16.199,8.99986,-9.00049,0.182462,0.00492351,0.00225193,-0.00386123,-1.14824e-05,2.44726e-05,-0.0229109
16.209,8.99985,-9.00049,0.182462,-0.00480062,-0.0022134,-0.00387488,1.15546e-05,-2.21352e-05,-0.0229253
16.219,8.99986,-9.00049,0.182462,0.00492357,0.0022518,-0.00386124,-1.14825e-05,2.44727e-05,-0.0229409
16.229,8.99985,-9.00049,0.182462,-0.00480068,-0.00221327,-0.00387489,1.15547e-05,-2.21352e-05,-0.0229553
16.239,8.99985,-9.00049,0.182462,0.00492364,0.00225167,-0.00386125,-1.14826e-05,2.44727e-05,-0.0229709
16.249,8.99985,-9.00049,0.182462,-0.00480075,-0.00221314,-0.0038749,1.15548e-05,-2.21352e-05,-0.0229853
16.269,8.99985,-9.00049,0.182462,-0.00480081,-0.00221301,-0.00387491,1.15549e-05,-2.21352e-05,-0.0230153
16.279,8.99985,-9.00049,0.182462,0.00492378,0.0022514,-0.00386127,-1.14828e-05,2.44728e-05,-0.0230309
16.289,8.99985,-9.00049,0.182462,-0.00480088,-0.00221288,-0.00387492,1.1555e-05,-2.21352e-05,-0.0230453
16.299,8.99985,-9.00049,0.182462,0.00492385,0.00225127,-0.00386128,-1.14829e-05,2.44729e-05,-0.0230609
16.309,8.99985,-9.00049,0.182462,-0.00480094,-0.00221275,-0.00387492,1.15551e-05,-2.21351e-05,-0.0230753
16.319,8.99985,-9.00049,0.182462,0.00492392,0.00225114,-0.00386129,-1.14829e-05,2.44729e-05,-0.0230909
16.329,8.99985,-9.00049,0.182462,-0.00480101,-0.00221262,-0.00387493,1.15552e-05,-2.21351e-05,-0.0231053
16.339,8.99985,-9.00049,0.182462,0.00492399,0.002251,-0.00386129,-1.1483e-05,2.4473e-05,-0.0231209
16.349,8.99985,-9.00049,0.182462,-0.00480107,-0.00221249,-0.00387494,1.15553e-05,-2.21351e-05,-0.0231353
16.359,8.99985,-9.00049,0.182462,0.00492406,0.00225087,-0.0038613,-1.14831e-05,2.4473e-05,-0.0231509
16.369,8.99984,-9.00049,0.182462,-0.00480114,-0.00221237,-0.00387495,1.15554e-05,-2.21351e-05,-0.0231653
16.379,8.99985,-9.00049,0.182462,0.00492413,0.00225074,-0.00386131,-1.14832e-05,2.44731e-05,-0.0231809
16.389,8.99984,-9.0005,0.182462,-0.0048012,-0.00221224,-0.00387496,1.15555e-05,-2.21351e-05,-0.0231953
16.399,8.99985,-9.00049,0.182462,0.0049242,0.00225061,-0.00386132,-1.14833e-05,2.44731e-05,-0.0232108
16.409,8.99984,-9.0005,0.182462,-0.00480127,-0.00221211,-0.00387497,1.15556e-05,-2.21351e-05,-0.0232253
16.419,8.99985,-9.00049,0.182462,0.00492427,0.00225047,-0.00386133,-1.14834e-05,2.44732e-05,-0.0232408
16.429,8.99984,-9.0005,0.182462,-0.00480133,-0.00221198,-0.00387498,1.15558e-05,-2.21351e-05,-0.0232552
16.469,8.99984,-9.0005,0.182462,-0.00480146,-0.00221172,-0.00387499,1.1556e-05,-2.21351e-05,-0.0233152
16.479,8.99985,-9.00049,0.182462,0.00492447,0.00225008,-0.00386136,-1.14836e-05,2.44734e-05,-0.0233308
16.489,8.99984,-9.0005,0.182462,-0.00480153,-0.00221159,-0.003875,1.15561e-05,-2.21351e-05,-0.0233452
16.499,8.99985,-9.0005,0.182462,0.00492454,0.00224994,-0.00386136,-1.14837e-05,2.44734e-05,-0.0233608
16.509,8.99984,-9.0005,0.182462,-0.00480159,-0.00221146,-0.00387501,1.15562e-05,-2.21351e-05,-0.0233752
16.519,8.99985,-9.0005,0.182462,0.00492461,0.00224981,-0.00386137,-1.14838e-05,2.44735e-05,-0.0233908
16.529,8.99984,-9.0005,0.182462,-0.00480166,-0.00221133,-0.00387502,1.15563e-05,-2.21351e-05,-0.0234052
16.539,8.99985,-9.0005,0.182462,0.00492468,0.00224968,-0.00386138,-1.14839e-05,2.44735e-05,-0.0234208
16.549,8.99984,-9.0005,0.182462,-0.00480172,-0.0022112,-0.00387503,1.15564e-05,-2.21351e-05,-0.0234352
16.559,8.99985,-9.0005,0.182462,0.00492475,0.00224955,-0.00386139,-1.14839e-05,2.44736e-05,-0.0234508
16.569,8.99984,-9.0005,0.182462,-0.00480179,-0.00221107,-0.00387504,1.15565e-05,-2.21351e-05,-0.0234652
16.579,8.99985,-9.0005,0.182462,0.00492482,0.00224941,-0.0038614,-1.1484e-05,2.44736e-05,-0.0234808
16.589,8.99984,-9.0005,0.182462,-0.00480185,-0.00221095,-0.00387505,1.15566e-05,-2.2135e-05,-0.0234952
16.599,8.99985,-9.0005,0.182462,0.00492489,0.00224928,-0.00386141,-1.14841e-05,2.44737e-05,-0.0235107
16.609,8.99984,-9.0005,0.182462,-0.00480192,-0.00221082,-0.00387506,1.15567e-05,-2.2135e-05,-0.0235252
16.619,8.99985,-9.0005,0.182462,0.00492496,0.00224915,-0.00386142,-1.14842e-05,2.44737e-05,-0.0235407
16.629,8.99984,-9.0005,0.182462,-0.00480198,-0.00221069,-0.00387506,1.15568e-05,-2.2135e-05,-0.0235551
16.679,8.99985,-9.0005,0.182462,0.00492517,0.00224875,-0.00386144,-1.14844e-05,2.44739e-05,-0.0236307
16.689,8.99984,-9.0005,0.182462,-0.00480218,-0.0022103,-0.00387509,1.15571e-05,-2.2135e-05,-0.0236451
16.699,8.99985,-9.0005,0.182462,0.00492524,0.00224862,-0.00386145,-1.14845e-05,2.44739e-05,-0.0236607
16.709,8.99984,-9.00051,0.182462,-0.00480224,-0.00221017,-0.0038751,1.15572e-05,-2.2135e-05,-0.0236751
16.719,8.99985,-9.0005,0.182462,0.0049253,0.00224849,-0.00386146,-1.14846e-05,2.4474e-05,-0.0236907
16.729,8.99984,-9.00051,0.182462,-0.00480231,-0.00221004,-0.00387511,1.15573e-05,-2.2135e-05,-0.0237051
16.739,8.99985,-9.0005,0.182462,0.00492537,0.00224835,-0.00386147,-1.14847e-05,2.4474e-05,-0.0237207
16.749,8.99984,-9.00051,0.182462,-0.00480237,-0.00220991,-0.00387512,1.15574e-05,-2.2135e-05,-0.0237351
16.759,8.99985,-9.0005,0.182462,0.00492544,0.00224822,-0.00386148,-1.14848e-05,2.44741e-05,-0.0237507
16.769,8.99984,-9.00051,0.182462,-0.00480244,-0.00220978,-0.00387513,1.15575e-05,-2.2135e-05,-0.0237651
16.779,8.99985,-9.0005,0.182462,0.00492551,0.00224809,-0.00386149,-1.14849e-05,2.44741e-05,-0.0237806
16.789,8.99984,-9.00051,0.182462,-0.0048025,-0.00220965,-0.00387513,1.15576e-05,-2.2135e-05,-0.023795
16.799,8.99985,-9.0005,0.182462,0.00492558,0.00224796,-0.00386149,-1.14849e-05,2.44742e-05,-0.0238106
16.809,8.99984,-9.00051,0.182462,-0.00480257,-0.00220953,-0.00387514,1.15577e-05,-2.2135e-05,-0.023825
16.819,8.99985,-9.00051,0.182462,0.00492565,0.00224782,-0.0038615,-1.1485e-05,2.44743e-05,-0.0238406
16.829,8.99984,-9.00051,0.182462,-0.00480263,-0.0022094,-0.00387515,1.15579e-05,-2.2135e-05,-0.023855
16.839,8.99985,-9.00051,0.182462,0.00492572,0.00224769,-0.00386151,-1.14851e-05,2.44743e-05,-0.0238706
16.849,8.99984,-9.00051,0.182462,-0.0048027,-0.00220927,-0.00387516,1.1558e-05,-2.2135e-05,-0.023885
16.869,8.99984,-9.00051,0.182462,-0.00480276,-0.00220914,-0.00387517,1.15581e-05,-2.21349e-05,-0.023915
16.879,8.99985,-9.00051,0.182462,0.00492586,0.00224743,-0.00386153,-1.14853e-05,2.44744e-05,-0.0239306
16.889,8.99984,-9.00051,0.182462,-0.00480283,-0.00220901,-0.00387518,1.15582e-05,-2.21349e-05,-0.023945
16.899,8.99985,-9.00051,0.182462,0.00492593,0.00224729,-0.00386154,-1.14853e-05,2.44745e-05,-0.0239606
16.909,8.99984,-9.00051,0.182462,-0.00480289,-0.00220888,-0.00387519,1.15583e-05,-2.21349e-05,-0.023975
16.919,8.99985,-9.00051,0.182462,0.004926,0.00224716,-0.00386155,-1.14854e-05,2.44745e-05,-0.0239905
16.929,8.99984,-9.00051,0.182462,-0.00480296,-0.00220875,-0.00387519,1.15584e-05,-2.21349e-05,-0.0240049
16.939,8.99985,-9.00051,0.182462,0.00492607,0.00224703,-0.00386156,-1.14855e-05,2.44746e-05,-0.0240205
16.949,8.99984,-9.00051,0.182462,-0.00480302,-0.00220862,-0.0038752,1.15585e-05,-2.21349e-05,-0.0240349
16.959,8.99985,-9.00051,0.182462,0.00492613,0.0022469,-0.00386156,-1.14856e-05,2.44746e-05,-0.0240505
16.969,8.99984,-9.00051,0.182462,-0.00480309,-0.00220849,-0.00387521,1.15586e-05,-2.21349e-05,-0.0240649
16.979,8.99985,-9.00051,0.182462,0.0049262,0.00224676,-0.00386157,-1.14857e-05,2.44747e-05,-0.0240805
16.989,8.99984,-9.00051,0.182462,-0.00480315,-0.00220836,-0.00387522,1.15587e-05,-2.21349e-05,-0.0240949
16.999,8.99985,-9.00051,0.182462,0.00492627,0.00224663,-0.00386158,-1.14858e-05,2.44747e-05,-0.0241105
17.009,8.99984,-9.00052,0.182462,-0.00480321,-0.00220823,-0.00387523,1.15588e-05,-2.21349e-05,-0.0241249
17.019,8.99985,-9.00051,0.182462,0.00492634,0.0022465,-0.00386159,-1.14858e-05,2.44748e-05,-0.0241405
17.029,8.99984,-9.00052,0.182462,-0.00480328,-0.00220811,-0.00387524,1.15589e-05,-2.21349e-05,-0.0241549
17.039,8.99985,-9.00051,0.182462,0.00492641,0.00224637,-0.0038616,-1.14859e-05,2.44748e-05,-0.0241704
17.069,8.99984,-9.00052,0.182462,-0.00480341,-0.00220785,-0.00387526,1.15591e-05,-2.21349e-05,-0.0242148
17.079,8.99985,-9.00051,0.182462,0.00492655,0.0022461,-0.00386162,-1.14861e-05,2.44749e-05,-0.0242304
17.089,8.99984,-9.00052,0.182462,-0.00480347,-0.00220772,-0.00387526,1.15592e-05,-2.21349e-05,-0.0242448
17.099,8.99985,-9.00051,0.182462,0.00492662,0.00224597,-0.00386163,-1.14862e-05,2.4475e-05,-0.0242604
17.109,8.99984,-9.00052,0.182462,-0.00480354,-0.00220759,-0.00387527,1.15593e-05,-2.21349e-05,-0.0242748
17.119,8.99985,-9.00052,0.182462,0.00492669,0.00224583,-0.00386163,-1.14863e-05,2.4475e-05,-0.0242904
17.129,8.99984,-9.00052,0.182462,-0.0048036,-0.00220746,-0.00387528,1.15594e-05,-2.21349e-05,-0.0243048
17.139,8.99985,-9.00052,0.182462,0.00492676,0.0022457,-0.00386164,-1.14863e-05,2.44751e-05,-0.0243204
17.149,8.99984,-9.00052,0.182462,-0.00480367,-0.00220733,-0.00387529,1.15595e-05,-2.21348e-05,-0.0243348
17.159,8.99985,-9.00052,0.182462,0.00492682,0.00224557,-0.00386165,-1.14864e-05,2.44752e-05,-0.0243503
17.169,8.99984,-9.00052,0.182462,-0.00480373,-0.0022072,-0.0038753,1.15596e-05,-2.21348e-05,-0.0243647
17.179,8.99985,-9.00052,0.182462,0.00492689,0.00224544,-0.00386166,-1.14865e-05,2.44752e-05,-0.0243803
17.189,8.99984,-9.00052,0.182462,-0.0048038,-0.00220707,-0.00387531,1.15597e-05,-2.21348e-05,-0.0243947
17.199,8.99984,-9.00052,0.182462,0.00492696,0.0022453,-0.00386167,-1.14866e-05,2.44753e-05,-0.0244103
17.209,8.99984,-9.00052,0.182462,-0.00480386,-0.00220694,-0.00387532,1.15598e-05,-2.21348e-05,-0.0244247
17.219,8.99984,-9.00052,0.182462,0.00492703,0.00224517,-0.00386168,-1.14867e-05,2.44753e-05,-0.0244403
17.229,8.99984,-9.00052,0.182462,-0.00480393,-0.00220681,-0.00387533,1.156e-05,-2.21348e-05,-0.0244547
17.239,8.99984,-9.00052,0.182462,0.0049271,0.00224504,-0.00386169,-1.14868e-05,2.44754e-05,-0.0244703
17.259,8.99984,-9.00052,0.182462,0.00492717,0.00224491,-0.0038617,-1.14868e-05,2.44754e-05,-0.0245003
17.269,8.99984,-9.00052,0.182462,-0.00480406,-0.00220656,-0.00387534,1.15602e-05,-2.21348e-05,-0.0245147
17.279,8.99984,-9.00052,0.182462,0.00492724,0.00224477,-0.0038617,-1.14869e-05,2.44755e-05,-0.0245302
17.289,8.99984,-9.00052,0.182462,-0.00480412,-0.00220643,-0.00387535,1.15603e-05,-2.21348e-05,-0.0245446
17.299,8.99984,-9.00052,0.182462,0.00492731,0.00224464,-0.00386171,-1.1487e-05,2.44755e-05,-0.0245602
17.309,8.99984,-9.00053,0.182462,-0.00480419,-0.0022063,-0.00387536,1.15604e-05,-2.21348e-05,-0.0245746
17.319,8.99984,-9.00052,0.182462,0.00492738,0.00224451,-0.00386172,-1.14871e-05,2.44756e-05,-0.0245902
17.329,8.99983,-9.00053,0.182462,-0.00480425,-0.00220617,-0.00387537,1.15605e-05,-2.21348e-05,-0.0246046
17.339,8.99984,-9.00052,0.182462,0.00492745,0.00224438,-0.00386173,-1.14872e-05,2.44756e-05,-0.0246202
17.349,8.99983,-9.00053,0.182462,-0.00480432,-0.00220604,-0.00387538,1.15606e-05,-2.21348e-05,-0.0246346
17.359,8.99984,-9.00052,0.182462,0.00492752,0.00224424,-0.00386174,-1.14873e-05,2.44757e-05,-0.0246502
17.369,8.99983,-9.00053,0.182462,-0.00480438,-0.00220591,-0.00387539,1.15607e-05,-2.21348e-05,-0.0246646
17.379,8.99984,-9.00052,0.182462,0.00492758,0.00224411,-0.00386175,-1.14873e-05,2.44757e-05,-0.0246801
17.389,8.99983,-9.00053,0.182462,-0.00480445,-0.00220578,-0.0038754,1.15608e-05,-2.21348e-05,-0.0246945
17.399,8.99984,-9.00052,0.182462,0.00492765,0.00224398,-0.00386176,-1.14874e-05,2.44758e-05,-0.0247101
17.409,8.99983,-9.00053,0.182462,-0.00480451,-0.00220565,-0.0038754,1.15609e-05,-2.21348e-05,-0.0247245
17.419,8.99984,-9.00053,0.182462,0.00492772,0.00224385,-0.00386177,-1.14875e-05,2.44758e-05,-0.0247401
17.429,8.99983,-9.00053,0.182462,-0.00480458,-0.00220552,-0.00387541,1.1561e-05,-2.21348e-05,-0.0247545
17.439,8.99984,-9.00053,0.182462,0.00492779,0.00224371,-0.00386177,-1.14876e-05,2.44759e-05,-0.0247701
17.449,8.99983,-9.00053,0.182462,-0.00480464,-0.00220539,-0.00387542,1.15611e-05,-2.21347e-05,-0.0247845
17.459,8.99984,-9.00053,0.182462,0.00492786,0.00224358,-0.00386178,-1.14877e-05,2.44759e-05,-0.0248001
17.469,8.99983,-9.00053,0.182462,-0.00480471,-0.00220526,-0.00387543,1.15612e-05,-2.21347e-05,-0.0248145
17.479,8.99984,-9.00053,0.182462,0.00492793,0.00224345,-0.00386179,-1.14877e-05,2.4476e-05,-0.02483
17.489,8.99983,-9.00053,0.182462,-0.00480477,-0.00220513,-0.00387544,1.15613e-05,-2.21347e-05,-0.0248444
17.499,8.99984,-9.00053,0.182462,0.004928,0.00224331,-0.0038618,-1.14878e-05,2.44761e-05,-0.02486
17.509,8.99983,-9.00053,0.182462,-0.00480483,-0.00220501,-0.00387545,1.15614e-05,-2.21347e-05,-0.0248744
17.519,8.99984,-9.00053,0.182462,0.00492807,0.00224318,-0.00386181,-1.14879e-05,2.44761e-05,-0.02489
17.559,8.99984,-9.00053,0.182462,0.00492821,0.00224292,-0.00386183,-1.14881e-05,2.44762e-05,-0.0249499
17.569,8.99983,-9.00053,0.182462,-0.00480503,-0.00220462,-0.00387547,1.15617e-05,-2.21347e-05,-0.0249643
17.579,8.99984,-9.00053,0.182462,0.00492827,0.00224278,-0.00386184,-1.14882e-05,2.44763e-05,-0.0249799
17.589,8.99983,-9.00053,0.182462,-0.00480509,-0.00220449,-0.00387548,1.15618e-05,-2.21347e-05,-0.0249943
17.599,8.99984,-9.00053,0.182462,0.00492834,0.00224265,-0.00386184,-1.14882e-05,2.44763e-05,-0.0250099
17.609,8.99983,-9.00054,0.182462,-0.00480516,-0.00220436,-0.00387549,1.15619e-05,-2.21347e-05,-0.0250243
17.619,8.99984,-9.00053,0.182462,0.00492841,0.00224252,-0.00386185,-1.14883e-05,2.44764e-05,-0.0250399
17.629,8.99983,-9.00054,0.182462,-0.00480522,-0.00220423,-0.0038755,1.1562e-05,-2.21347e-05,-0.0250543
17.639,8.99984,-9.00053,0.182462,0.00492848,0.00224239,-0.00386186,-1.14884e-05,2.44764e-05,-0.0250698
17.649,8.99983,-9.00054,0.182462,-0.00480529,-0.0022041,-0.00387551,1.15621e-05,-2.21347e-05,-0.0250842
17.669,8.99983,-9.00054,0.182462,-0.00480535,-0.00220397,-0.00387552,1.15622e-05,-2.21347e-05,-0.0251142
17.679,8.99982,-9.00054,0.182491,-0.0031684,-0.00097366,0.0193691,2.15104e-05,-5.74999e-05,-0.0251279
17.689,8.99979,-9.00055,0.183235,-0.00319599,-0.000979339,0.119431,3.61054e-05,-0.000242107,-0.0251357
17.699,8.99976,-9.00056,0.18498,-0.00326225,-0.000982823,0.219477,9.00004e-06,-0.000457265,-0.0251431
17.709,8.99973,-9.00057,0.187725,-0.00337293,-0.000976034,0.319495,-6.15802e-05,-0.000694859,-0.0251501
17.719,8.99969,-9.00058,0.19147,-0.00353086,-0.000949754,0.419469,-0.000180043,-0.000941787,-0.0251567
17.729,8.99966,-9.00059,0.196214,-0.00373695,-0.000894567,0.519388,-0.000345414,-0.00119082,-0.025163
17.739,8.99962,-9.0006,0.201957,-0.00399087,-0.000801522,0.619236,-0.000554635,-0.00143717,-0.0251688
17.749,8.99958,-9.0006,0.208697,-0.00429055,-0.000662941,0.718399,-0.000803557,-0.0016776,-0.0251743
17.759,8.99953,-9.00061,0.216411,-0.00462929,-0.000474571,0.814101,-0.00108791,-0.00191038,-0.0251795
17.769,8.99948,-9.00061,0.225056,-0.00500113,-0.000233766,0.904986,-0.0014039,-0.00213433,-0.0251842
17.779,8.99943,-9.00061,0.234584,-0.00540265,6.22378e-05,0.991299,-0.00174794,-0.00234865,-0.0251887
17.789,8.99937,-9.00061,0.244951,-0.00583048,0.000415269,1.07323,-0.00211665,-0.00255286,-0.0251927
17.799,8.99931,-9.0006,0.256114,-0.00628108,0.000826134,1.15084,-0.002507,-0.0027462,-0.0251965
17.809,8.99925,-9.00059,0.268029,-0.00675136,0.00129527,1.22432,-0.0029162,-0.00292816,-0.0252
17.819,8.99918,-9.00058,0.280658,-0.007238,0.00182219,1.29374,-0.00334176,-0.00309867,-0.0252031
17.829,8.9991,-9.00056,0.293959,-0.00773852,0.00240663,1.35934,-0.00378139,-0.00325781,-0.025206
17.839,8.99902,-9.00053,0.307896,-0.00825042,0.00304772,1.42132,-0.00423286,-0.00340559,-0.0252086
17.869,8.99875,-9.0004,0.353165,-0.00982741,0.00529429,1.58609,-0.0056405,-0.00377304,-0.0252151
17.879,8.99865,-9.00035,0.369292,-0.0103578,0.0061433,1.63408,-0.00612227,-0.00386807,-0.0252168
17.889,8.99854,-9.00028,0.385881,-0.0108866,0.0070391,1.67881,-0.00660831,-0.00394792,-0.0252184
17.899,8.99843,-9.0002,0.402901,-0.0114123,0.00798073,1.72057,-0.00709727,-0.00401248,-0.0252199
17.909,8.99831,-9.00012,0.420324,-0.0119334,0.00896736,1.75962,-0.0075877,-0.00406212,-0.0252213
17.919,8.99819,-9.00002,0.438123,-0.0124478,0.00999651,1.796,-0.00807815,-0.00409753,-0.0252225
17.929,8.99807,-8.99992,0.456268,-0.0129516,0.0110611,1.82922,-0.00856813,-0.00412009,-0.0252236
17.939,8.99793,-8.9998,0.474729,-0.0134445,0.0121611,1.85964,-0.00905703,-0.00413092,-0.0252247
17.949,8.9978,-8.99967,0.493481,-0.0139251,0.0132938,1.88731,-0.00954382,-0.00413061,-0.0252256
17.959,8.99765,-8.99953,0.512489,-0.0143888,0.0144478,1.91138,-0.0100287,-0.00411695,-0.0252265
17.969,8.99751,-8.99938,0.53172,-0.0148361,0.0156252,1.9324,-0.0105114,-0.0040884,-0.0252274
17.979,8.99736,-8.99922,0.551148,-0.0152671,0.0168275,1.95084,-0.0109911,-0.00404489,-0.0252283
17.989,8.9972,-8.99905,0.570747,-0.0156815,0.0180551,1.96698,-0.0114665,-0.00398683,-0.0252291
17.999,8.99704,-8.99886,0.590494,-0.0160777,0.0193051,1.98081,-0.0119368,-0.0039112,-0.0252301
18.009,8.99688,-8.99866,0.610369,-0.0164553,0.0205791,1.9927,-0.0124008,-0.00381631,-0.0252311
18.019,8.99671,-8.99845,0.630353,-0.0168129,0.0218754,2.00271,-0.0128571,-0.00370267,-0.0252323
18.029,8.99654,-8.99822,0.650423,-0.017147,0.0231835,2.01023,-0.0133057,-0.00357237,-0.0252335
18.039,8.99637,-8.99798,0.670557,-0.0174576,0.024505,2.01561,-0.0137459,-0.00342742,-0.0252348
18.069,8.99583,-8.99718,0.731135,-0.0182447,0.0285467,2.02046,-0.0150101,-0.00289794,-0.0252394
18.079,8.99565,-8.99689,0.751334,-0.0184581,0.0299231,2.01912,-0.0154087,-0.00269228,-0.0252411
18.089,8.99546,-8.99658,0.771505,-0.0186433,0.0312925,2.01514,-0.0157952,-0.00247524,-0.0252429
18.099,8.99528,-8.99626,0.791625,-0.0188017,0.0326613,2.00911,-0.0161697,-0.00224874,-0.0252448
18.109,8.99509,-8.99593,0.811675,-0.0189345,0.0340348,2.00151,-0.0165314,-0.0020142,-0.0252466
18.119,8.9949,-8.99558,0.831643,-0.0190423,0.0354175,1.99274,-0.016879,-0.00177278,-0.0252486
18.129,8.99471,-8.99522,0.851517,-0.0191254,0.0368083,1.98284,-0.0172113,-0.00152528,-0.0252505
18.139,8.99452,-8.99484,0.871282,-0.0191828,0.0381925,1.97109,-0.0175278,-0.0012661,-0.0252525
18.149,8.99432,-8.99445,0.890922,-0.019215,0.0395766,1.95797,-0.017828,-0.000991542,-0.0252547
18.159,8.99413,-8.99405,0.910424,-0.0192214,0.0409622,1.94369,-0.0181108,-0.000701376,-0.0252571
18.169,8.99394,-8.99363,0.929775,-0.0192014,0.0423402,1.92786,-0.0183755,-0.00039261,-0.0252598
18.179,8.99375,-8.9932,0.948961,-0.0191544,0.043717,1.91094,-0.0186215,-6.42449e-05,-0.0252627
18.189,8.99356,-8.99276,0.967974,-0.0190794,0.0450954,1.89318,-0.0188475,0.000282253,-0.0252658
18.199,8.99337,-8.9923,0.986803,-0.0189757,0.0464712,1.87446,-0.0190529,0.00065055,-0.0252691
18.209,8.99318,-8.99183,1.00544,-0.0188417,0.0478494,1.85514,-0.0192367,0.00104197,-0.0252728
18.219,8.99299,-8.99134,1.02388,-0.0186765,0.049228,1.8352,-0.0193979,0.00145437,-0.0252767
18.229,8.9928,-8.99084,1.04212,-0.0184807,0.0505879,1.81376,-0.0195358,0.00188926,-0.0252809
18.239,8.99262,-8.99033,1.06013,-0.0182527,0.051937,1.79132,-0.0196495,0.00234626,-0.0252853
18.249,8.99244,-8.9898,1.07792,-0.0179915,0.0532771,1.76807,-0.0197384,0.00282217,-0.0252899
18.259,8.99226,-8.98926,1.09547,-0.0176981,0.0545974,1.74356,-0.0198014,0.00331331,-0.0252945
18.289,8.99175,-8.98756,1.14658,-0.0166142,0.0584925,1.66603,-0.0198282,0.00484327,-0.0253078
18.299,8.99158,-8.98697,1.1631,-0.0161828,0.059773,1.63938,-0.0197814,0.00536828,-0.0253119
18.309,8.99142,-8.98637,1.17935,-0.0157139,0.0610499,1.61276,-0.0197065,0.00589776,-0.0253158
18.319,8.99127,-8.98575,1.19533,-0.0152059,0.0623257,1.58638,-0.0196037,0.00642804,-0.0253194
18.329,8.99112,-8.98512,1.21105,-0.0146604,0.0635945,1.56005,-0.0194732,0.00695563,-0.0253225
18.339,8.99098,-8.98447,1.2265,-0.0140868,0.0648305,1.53253,-0.019312,0.00748576,-0.0253254
18.349,8.99084,-8.98382,1.24167,-0.0134823,0.0660413,1.5043,-0.0191185,0.00802141,-0.025328
18.359,8.99071,-8.98315,1.25655,-0.0128443,0.0672322,1.47575,-0.0188926,0.00856095,-0.0253303
18.369,8.99058,-8.98247,1.27115,-0.0121723,0.0684025,1.44692,-0.0186351,0.00910112,-0.0253321
18.379,8.99046,-8.98178,1.28546,-0.0114734,0.0695378,1.41717,-0.0183434,0.00964421,-0.0253336
18.389,8.99035,-8.98108,1.29947,-0.0107438,0.0706445,1.38691,-0.0180164,0.0101906,-0.0253347
18.399,8.99025,-8.98037,1.31317,-0.00998099,0.0717257,1.35645,-0.0176549,0.0107375,-0.0253353
18.409,8.99016,-8.97965,1.32656,-0.00918498,0.0727796,1.3258,-0.0172593,0.0112854,-0.0253354
18.419,8.99007,-8.97891,1.33965,-0.00835254,0.0738091,1.29526,-0.016831,0.0118333,-0.025335
18.429,8.98999,-8.97817,1.35244,-0.00748091,0.0748157,1.26506,-0.0163722,0.0123771,-0.025334
18.439,8.98992,-8.97742,1.36493,-0.00656789,0.0758001,1.23537,-0.0158854,0.0129122,-0.0253322
18.479,8.98973,-8.9743,1.41189,-0.0031329,0.0798236,1.11514,-0.0201977,0.00713427,-0.0251923
18.489,8.9897,-8.9735,1.42288,-0.0027562,0.0812116,1.08495,-0.0243132,0.00195759,-0.0250793
18.499,8.98968,-8.97268,1.43357,-0.00276626,0.0829276,1.05519,-0.0293786,-0.00438873,-0.0249224
18.509,8.98965,-8.97184,1.44396,-0.00323577,0.0850304,1.02576,-0.0351367,-0.0115931,-0.0247187
18.519,8.98961,-8.97097,1.45405,-0.00420702,0.087534,0.995815,-0.0413581,-0.0193712,-0.0244687
18.529,8.98956,-8.97008,1.46384,-0.00571025,0.0904734,0.965704,-0.0478491,-0.0274845,-0.0241763
18.539,8.98949,-8.96916,1.47333,-0.00776664,0.0938742,0.935687,-0.0544519,-0.0357421,-0.0238475
18.549,8.9894,-8.9682,1.48253,-0.0103903,0.0977541,0.905971,-0.061043,-0.0439963,-0.0234899
18.559,8.98928,-8.9672,1.49142,-0.0135894,0.102124,0.876717,-0.0675281,-0.0521358,-0.0231117
18.569,8.98912,-8.96615,1.50003,-0.0173577,0.106978,0.847874,-0.0738377,-0.0600792,-0.0227207
18.579,8.98893,-8.96505,1.50835,-0.0216526,0.112265,0.818883,-0.0799316,-0.0677762,-0.0223239
18.589,8.98868,-8.9639,1.51638,-0.0264711,0.117987,0.789991,-0.0857811,-0.0751924,-0.0219271
18.599,8.98839,-8.96269,1.52412,-0.0318096,0.124148,0.761392,-0.0913632,-0.0823021,-0.021536
18.609,8.98804,-8.96141,1.53158,-0.0376478,0.130727,0.733055,-0.0966613,-0.089088,-0.0211552
18.619,8.98763,-8.96006,1.53876,-0.0439156,0.137651,0.7044,-0.101678,-0.0955522,-0.0207875
18.629,8.98715,-8.95865,1.54564,-0.0506062,0.144917,0.67563,-0.106417,-0.101698,-0.0204353
18.649,8.98599,-8.95559,1.55855,-0.06517,0.160403,0.617777,-0.115074,-0.113053,-0.0197847
18.659,8.9853,-8.95394,1.56457,-0.0730457,0.168634,0.589113,-0.11899,-0.118264,-0.0194902
18.669,8.98452,-8.95221,1.5703,-0.0812972,0.177171,0.560671,-0.122632,-0.123168,-0.0192185
18.679,8.98366,-8.95039,1.57575,-0.0899268,0.186019,0.532623,-0.126,-0.127764,-0.0189711
18.689,8.98271,-8.94848,1.58093,-0.0989263,0.195171,0.505041,-0.129092,-0.132054,-0.0187496
18.699,8.98167,-8.94647,1.58583,-0.108262,0.204593,0.477803,-0.131912,-0.136044,-0.0185547
18.709,8.98054,-8.94437,1.59046,-0.117935,0.214287,0.451047,-0.134464,-0.139736,-0.0183871
18.719,8.9793,-8.94218,1.59482,-0.127936,0.224243,0.424827,-0.136747,-0.143132,-0.0182481
18.729,8.97797,-8.93988,1.59893,-0.138229,0.234427,0.399022,-0.138767,-0.146239,-0.018138
18.739,8.97653,-8.93748,1.60278,-0.148813,0.244836,0.373749,-0.140527,-0.149058,-0.0180573
18.759,8.97332,-8.93236,1.60974,-0.170753,0.266232,0.32461,-0.143275,-0.153849,-0.0179865
18.769,8.97155,-8.92963,1.61285,-0.182058,0.277167,0.300648,-0.144277,-0.155833,-0.0179961
18.779,8.96967,-8.9268,1.61573,-0.193576,0.28825,0.27719,-0.145033,-0.157546,-0.0180364
18.789,8.96767,-8.92386,1.61837,-0.205273,0.299448,0.254141,-0.145546,-0.158989,-0.0181076
18.799,8.96555,-8.9208,1.62079,-0.217139,0.310752,0.231564,-0.145818,-0.160166,-0.01821
18.809,8.96331,-8.91763,1.62298,-0.229144,0.32213,0.209388,-0.145853,-0.161078,-0.0183437
18.819,8.96095,-8.91435,1.62496,-0.241282,0.333579,0.187715,-0.145652,-0.161725,-0.018509
18.829,8.95847,-8.91095,1.62672,-0.253547,0.34509,0.166622,-0.145213,-0.162104,-0.0187067
18.839,8.95587,-8.90743,1.62827,-0.265919,0.356647,0.14613,-0.144536,-0.162211,-0.0189375
18.849,8.95314,-8.9038,1.62962,-0.278361,0.368212,0.12614,-0.143625,-0.162048,-0.0192006
18.869,8.94731,-8.8962,1.63174,-0.303406,0.391327,0.08792,-0.141129,-0.160919,-0.0198198
18.879,8.94421,-8.89222,1.63252,-0.315977,0.402848,0.0697763,-0.139556,-0.159958,-0.0201731
18.889,8.94098,-8.88813,1.63312,-0.328552,0.414318,0.0522856,-0.137777,-0.158739,-0.0205527
18.899,8.93763,-8.88392,1.63355,-0.341093,0.425704,0.0353586,-0.135805,-0.157272,-0.0209555
18.909,8.93415,-8.8796,1.63381,-0.353584,0.436993,0.0190299,-0.133654,-0.155569,-0.0213781
18.919,8.93054,-8.87517,1.63392,-0.366005,0.448169,0.00331591,-0.131337,-0.15364,-0.0218173
18.929,8.92681,-8.87063,1.63386,-0.378335,0.459212,-0.0117956,-0.128866,-0.151496,-0.0222696
18.939,8.92296,-8.86598,1.63367,-0.390552,0.470107,-0.0263033,-0.126256,-0.149152,-0.0227315
18.949,8.91899,-8.86122,1.63333,-0.402632,0.480833,-0.0402459,-0.12352,-0.14662,-0.0231995
18.959,8.9149,-8.85635,1.63285,-0.414558,0.491377,-0.0536123,-0.120672,-0.143916,-0.0236702
18.969,8.91069,-8.85138,1.63224,-0.426315,0.501728,-0.0663984,-0.117727,-0.141052,-0.0241405
18.979,8.90636,-8.8463,1.63151,-0.437885,0.511871,-0.0786071,-0.114695,-0.138042,-0.0246075
18.989,8.90192,-8.84113,1.63066,-0.449251,0.521796,-0.0902496,-0.11159,-0.134899,-0.0250685
18.999,8.89737,-8.83586,1.6297,-0.460399,0.53149,-0.101335,-0.108422,-0.131638,-0.025521
19.009,8.8927,-8.83049,1.62863,-0.471314,0.540944,-0.111874,-0.105204,-0.128271,-0.0259629
19.019,8.88793,-8.82503,1.62745,-0.481984,0.550149,-0.121876,-0.101946,-0.124811,-0.0263922
19.029,8.88305,-8.81948,1.62618,-0.492398,0.559099,-0.131332,-0.0986572,-0.12127,-0.0268074
19.039,8.87807,-8.81384,1.62482,-0.502544,0.567784,-0.140268,-0.0953469,-0.11766,-0.0272071
19.049,8.87299,-8.80812,1.62337,-0.51241,0.576198,-0.148706,-0.092024,-0.113993,-0.0275901
19.059,8.86782,-8.80231,1.62184,-0.521988,0.584335,-0.156663,-0.0886969,-0.11028,-0.0279557
19.069,8.86255,-8.79642,1.62023,-0.531272,0.592192,-0.164131,-0.0853725,-0.10653,-0.028303
19.079,8.85718,-8.79046,1.61855,-0.540252,0.599764,-0.171138,-0.0820578,-0.102755,-0.0286318
19.089,8.85173,-8.78442,1.6168,-0.548925,0.60705,-0.177691,-0.0787588,-0.0989619,-0.0289417
19.099,8.8462,-8.77831,1.61499,-0.557283,0.614044,-0.183822,-0.0754814,-0.0951608,-0.0292326
19.109,8.84058,-8.77214,1.61312,-0.56532,0.620745,-0.18956,-0.0722313,-0.0913601,-0.0295046
19.119,8.83488,-8.76589,1.61119,-0.573035,0.627152,-0.194913,-0.0690134,-0.0875678,-0.0297579
19.129,8.82911,-8.75959,1.60922,-0.580431,0.633271,-0.199826,-0.0658311,-0.0837898,-0.0299928
19.159,8.81138,-8.74033,1.60302,-0.600683,0.649896,-0.212119,-0.0565295,-0.0726015,-0.030592
19.169,8.80534,-8.7338,1.60088,-0.606783,0.654862,-0.215495,-0.0535215,-0.0689399,-0.0307583
19.179,8.79924,-8.72722,1.59871,-0.612558,0.659543,-0.218554,-0.0505652,-0.0653217,-0.0309089
19.189,8.79308,-8.7206,1.59651,-0.618014,0.663944,-0.221239,-0.0476626,-0.0617511,-0.0310445
19.199,8.78687,-8.71394,1.59428,-0.623152,0.668069,-0.223579,-0.0448155,-0.0582318,-0.0311657
19.209,8.78062,-8.70724,1.59204,-0.627977,0.671923,-0.225528,-0.0420251,-0.0547673,-0.0312734
19.219,8.77431,-8.7005,1.58977,-0.632491,0.675509,-0.227133,-0.0392932,-0.051361,-0.0313683
19.229,8.76796,-8.69373,1.5875,-0.636698,0.67883,-0.228388,-0.0366214,-0.0480163,-0.031451
19.239,8.76157,-8.68692,1.58521,-0.640599,0.68189,-0.229354,-0.0340113,-0.0447367,-0.0315223
19.249,8.75515,-8.68009,1.58291,-0.644197,0.684692,-0.230082,-0.0314649,-0.0415256,-0.0315829
19.259,8.74869,-8.67323,1.5806,-0.647497,0.68724,-0.230596,-0.028984,-0.0383864,-0.0316333
19.269,8.7422,-8.66634,1.5783,-0.650507,0.689542,-0.23087,-0.0265696,-0.0353214,-0.0316745
19.279,8.73567,-8.65943,1.57599,-0.65323,0.691602,-0.23095,-0.0242226,-0.0323327,-0.031707
19.289,8.72913,-8.65251,1.57368,-0.655673,0.693427,-0.230856,-0.0219441,-0.0294227,-0.0317314
19.299,8.72256,-8.64556,1.57137,-0.657844,0.695023,-0.230549,-0.0197344,-0.0265926,-0.0317485
19.309,8.71597,-8.63861,1.56907,-0.659749,0.696397,-0.230075,-0.0175942,-0.0238441,-0.0317589
19.319,8.70936,-8.63164,1.56677,-0.661394,0.697555,-0.229471,-0.015524,-0.0211785,-0.0317632
19.329,8.70274,-8.62466,1.56448,-0.662788,0.698502,-0.22875,-0.0135244,-0.0185972,-0.0317619
19.339,8.69611,-8.61767,1.5622,-0.663938,0.699248,-0.227861,-0.0115954,-0.016101,-0.0317556
19.349,8.68946,-8.61067,1.55992,-0.664853,0.699799,-0.226847,-0.00973716,-0.0136907,-0.0317448
19.369,8.67615,-8.59667,1.55541,-0.666008,0.700344,-0.224217,-0.0062331,-0.00913029,-0.0317118
19.379,8.66949,-8.58966,1.55318,-0.666265,0.700354,-0.222509,-0.00458674,-0.00698079,-0.0316904
19.389,8.66283,-8.58266,1.55096,-0.666319,0.700196,-0.220627,-0.00301091,-0.00491914,-0.0316665
19.399,8.65617,-8.57566,1.54877,-0.666177,0.699879,-0.218624,-0.00150571,-0.00294582,-0.0316403
19.409,8.64951,-8.56866,1.54659,-0.665848,0.699409,-0.216511,-7.11562e-05,-0.00106114,-0.0316123
19.419,8.64285,-8.56167,1.54444,-0.66534,0.698793,-0.214214,0.00129294,0.000734773,-0.0315828
19.429,8.6362,-8.55469,1.54231,-0.664661,0.698039,-0.211767,0.00258682,0.00244188,-0.0315521
19.439,8.62956,-8.54771,1.54021,-0.66382,0.697154,-0.209136,0.00381074,0.0040602,-0.0315206
19.449,8.62292,-8.54075,1.53813,-0.662826,0.696144,-0.20638,0.00496502,0.00558988,-0.0314885
19.459,8.6163,-8.53379,1.53609,-0.661687,0.695019,-0.203547,0.00605008,0.00703128,-0.031456
19.469,8.60969,-8.52685,1.53407,-0.660411,0.693784,-0.200673,0.0070664,0.00838492,-0.0314235
19.479,8.6031,-8.51992,1.53208,-0.659009,0.692449,-0.197791,0.0080146,0.00965148,-0.0313911
19.489,8.59651,-8.513,1.53011,-0.657489,0.691019,-0.194925,0.00889537,0.0108318,-0.0313591
19.499,8.58995,-8.5061,1.52818,-0.655859,0.689502,-0.192057,0.00970949,0.0119267,-0.0313276
19.509,8.5834,-8.49921,1.52628,-0.654127,0.687904,-0.189055,0.0104575,0.0129367,-0.0312967
19.519,8.57687,-8.49234,1.5244,-0.6523,0.686233,-0.185963,0.0111402,0.0138625,-0.0312667
19.529,8.57036,-8.48549,1.52256,-0.650387,0.684495,-0.182784,0.0117583,0.0147049,-0.0312377
19.539,8.56386,-8.47866,1.52075,-0.648398,0.682697,-0.179563,0.0123128,0.0154651,-0.0312097
19.549,8.55739,-8.47184,1.51897,-0.64634,0.680846,-0.176334,0.0128046,0.0161443,-0.0311828
19.559,8.55094,-8.46504,1.51723,-0.644222,0.67895,-0.173126,0.013235,0.016744,-0.0311571
19.569,8.54451,-8.45826,1.51551,-0.642052,0.677015,-0.169919,0.0136051,0.0172658,-0.0311327
19.579,8.5381,-8.4515,1.51383,-0.639835,0.675046,-0.16658,0.0139157,0.0177104,-0.0311096
19.589,8.53171,-8.44476,1.51218,-0.637579,0.673048,-0.163163,0.0141679,0.0180789,-0.0310878
19.599,8.52535,-8.43804,1.51057,-0.635293,0.67103,-0.159711,0.0143629,0.0183731,-0.0310674
19.609,8.51901,-8.43134,1.50899,-0.632984,0.668996,-0.156234,0.0145022,0.0185946,-0.0310483
19.619,8.51269,-8.42467,1.50745,-0.630658,0.666953,-0.152664,0.014587,0.018745,-0.0310305
19.679,8.47528,-8.38502,1.49896,-0.616748,0.654809,-0.130698,0.0140371,0.0182605,-0.0309499
19.689,8.46912,-8.37848,1.49767,-0.614493,0.652851,-0.126844,0.0137854,0.0179694,-0.0309403
19.699,8.46299,-8.37197,1.49642,-0.612272,0.650923,-0.122914,0.0134931,0.0176245,-0.0309315
19.709,8.45688,-8.36547,1.49522,-0.61009,0.649031,-0.118957,0.0131626,0.0172289,-0.0309236
19.719,8.45079,-8.35899,1.49405,-0.607953,0.647179,-0.115009,0.0127964,0.0167858,-0.0309163
19.729,8.44472,-8.35253,1.49292,-0.605866,0.645371,-0.111099,0.0123971,0.0162984,-0.0309096
19.739,8.43868,-8.34608,1.49183,-0.603832,0.64361,-0.107251,0.0119673,0.0157703,-0.0309034
19.749,8.43265,-8.33965,1.49078,-0.601857,0.6419,-0.103483,0.0115094,0.0152046,-0.0308976
19.759,8.42664,-8.33324,1.48976,-0.599944,0.640244,-0.0998073,0.0110261,0.0146048,-0.0308921
19.769,8.42065,-8.32685,1.48879,-0.598096,0.638644,-0.0962345,0.0105199,0.0139739,-0.0308867
19.779,8.41468,-8.32047,1.48784,-0.596315,0.637102,-0.0927714,0.00999319,0.0133153,-0.0308815
19.789,8.40873,-8.31411,1.48693,-0.594605,0.63562,-0.0894228,0.00944835,0.012632,-0.0308764
19.799,8.40279,-8.30776,1.48606,-0.592967,0.6342,-0.0861915,0.00888779,0.011927,-0.0308712
19.809,8.39687,-8.30143,1.48521,-0.591402,0.632842,-0.0830789,0.00831382,0.0112033,-0.0308659
19.819,8.39096,-8.29511,1.4844,-0.589914,0.631549,-0.0800849,0.00772864,0.0104637,-0.0308605
19.829,8.38507,-8.2888,1.48361,-0.588501,0.63032,-0.0771688,0.00713433,0.009711,-0.0308549
19.839,8.37919,-8.2825,1.48286,-0.587165,0.629155,-0.0741777,0.00653275,0.00894752,-0.030849
19.879,8.35581,-8.25742,1.48014,-0.582596,0.625151,-0.0620886,0.00409187,0.00583495,-0.0308225
19.889,8.34998,-8.25117,1.47953,-0.58165,0.624314,-0.0591032,0.00348242,0.00505456,-0.030815
19.899,8.34417,-8.24493,1.47896,-0.580782,0.623542,-0.0561638,0.00287681,0.00427795,-0.0308071
19.909,8.33837,-8.2387,1.47841,-0.579992,0.622836,-0.0532841,0.00227663,0.0035073,-0.0307989
19.919,8.33257,-8.23248,1.4779,-0.579278,0.622192,-0.0504575,0.00168341,0.00274468,-0.0307903
19.929,8.32678,-8.22626,1.47741,-0.57864,0.621612,-0.0476256,0.00109869,0.00199182,-0.0307814
19.939,8.321,-8.22005,1.47695,-0.578077,0.621093,-0.0448123,0.000523911,0.0012504,-0.0307721
19.949,8.31522,-8.21384,1.47651,-0.577586,0.620635,-0.0420362,-3.96412e-05,0.000522152,-0.0307625
19.959,8.30945,-8.20763,1.47611,-0.577167,0.620236,-0.0393119,-0.000590796,-0.000191295,-0.0307527
19.969,8.30368,-8.20143,1.47573,-0.576819,0.619895,-0.036642,-0.00112848,-0.000888395,-0.0307425
19.979,8.29791,-8.19524,1.47538,-0.576538,0.61961,-0.0340036,-0.00165158,-0.00156781,-0.0307321
19.989,8.29215,-8.18904,1.47505,-0.576323,0.619379,-0.0314113,-0.00215913,-0.00222827,-0.0307215
19.999,8.28639,-8.18285,1.47475,-0.576173,0.6192,-0.0288762,-0.00265027,-0.00286856,-0.0307107
20.009,8.28063,-8.17666,1.47448,-0.576084,0.619072,-0.0264006,-0.00312423,-0.00348755,-0.0306998
20.019,8.27487,-8.17047,1.47423,-0.576056,0.618993,-0.0239662,-0.00358022,-0.00408429,-0.0306887
20.029,8.2691,-8.16428,1.474,-0.576084,0.61896,-0.0215842,-0.00401755,-0.00465788,-0.0306776
20.039,8.26334,-8.15809,1.4738,-0.576168,0.618972,-0.0192609,-0.00443567,-0.00520749,-0.0306663
20.069,8.24605,-8.13952,1.47332,-0.576722,0.619254,-0.0126316,-0.00556997,-0.00670551,-0.0306326
20.079,8.24028,-8.13332,1.47321,-0.576999,0.619422,-0.0105273,-0.00590665,-0.00715279,-0.0306215
20.089,8.23451,-8.12713,1.47311,-0.577318,0.619624,-0.00848303,-0.00622213,-0.00757332,-0.0306104
20.099,8.22874,-8.12093,1.47304,-0.577676,0.619856,-0.00650264,-0.00651627,-0.00796672,-0.0305995
20.109,8.22296,-8.11473,1.47299,-0.57807,0.620118,-0.00458608,-0.00678899,-0.00833271,-0.0305887
20.119,8.21717,-8.10853,1.47295,-0.578498,0.620406,-0.00272482,-0.00704015,-0.00867117,-0.030578
20.129,8.21139,-8.10232,1.47293,-0.578957,0.620718,-0.000922254,-0.00726969,-0.008982,-0.0305675
20.139,8.20559,-8.09611,1.47293,-0.579443,0.621052,0.000820901,-0.00747766,-0.00926515,-0.0305572
20.149,8.1998,-8.0899,1.47295,-0.579955,0.621406,0.00250908,-0.00766407,-0.00952071,-0.0305471
20.159,8.19399,-8.08368,1.47299,-0.58049,0.621777,0.00414022,-0.00782902,-0.00974879,-0.0305373
20.169,8.18819,-8.07746,1.47304,-0.581044,0.622163,0.00571353,-0.00797272,-0.00994953,-0.0305276
20.179,8.18237,-8.07124,1.4731,-0.581616,0.622561,0.00722989,-0.00809537,-0.0101232,-0.0305182
20.189,8.17655,-8.06501,1.47318,-0.582201,0.622971,0.00868906,-0.00819725,-0.0102699,-0.0305091
20.199,8.17073,-8.05878,1.47328,-0.582799,0.623389,0.0100914,-0.00827872,-0.0103902,-0.0305002
20.209,8.1649,-8.05254,1.47338,-0.583406,0.623813,0.0114376,-0.00834011,-0.0104842,-0.0304915
20.219,8.15906,-8.0463,1.47351,-0.584019,0.624242,0.0127288,-0.00838183,-0.0105526,-0.0304831
20.229,8.15322,-8.04006,1.47364,-0.584637,0.624673,0.0139656,-0.00840433,-0.0105956,-0.030475
20.239,8.14737,-8.03381,1.47379,-0.585257,0.625104,0.0151475,-0.00840803,-0.010614,-0.0304671
20.249,8.14151,-8.02756,1.47394,-0.585876,0.625533,0.0162766,-0.00839341,-0.0106083,-0.0304594
20.259,8.13565,-8.0213,1.47411,-0.586492,0.625959,0.017355,-0.00836103,-0.0105791,-0.030452
20.269,8.12978,-8.01504,1.47429,-0.587103,0.62638,0.0183839,-0.00831151,-0.0105272,-0.0304448
20.279,8.1239,-8.00877,1.47448,-0.587707,0.626794,0.0193618,-0.00824544,-0.0104531,-0.0304378
20.289,8.11802,-8.0025,1.47468,-0.588301,0.6272,0.0202918,-0.00816346,-0.0103579,-0.030431
20.299,8.11214,-7.99623,1.47489,-0.588885,0.627595,0.0211748,-0.00806628,-0.0102422,-0.0304245
20.309,8.10625,-7.98995,1.4751,-0.589455,0.627979,0.0220064,-0.00795458,-0.0101071,-0.0304181
20.319,8.10035,-7.98367,1.47533,-0.59001,0.628349,0.0227894,-0.00782907,-0.0099535,-0.0304119
20.329,8.09445,-7.97738,1.47556,-0.590548,0.628705,0.0235212,-0.00769047,-0.00978241,-0.0304058
20.339,8.08854,-7.97109,1.4758,-0.591068,0.629045,0.0242067,-0.00753957,-0.00959481,-0.0303999
20.369,8.07078,-7.95221,1.47655,-0.592504,0.62996,0.0259943,-0.00702122,-0.00894298,-0.0303827
20.379,8.06485,-7.9459,1.47682,-0.592937,0.630227,0.0265081,-0.0068293,-0.00869947,-0.0303772
20.389,8.05892,-7.9396,1.47709,-0.593345,0.630473,0.0269849,-0.00662923,-0.00844451,-0.0303718
20.399,8.05299,-7.93329,1.47736,-0.593727,0.630697,0.0274167,-0.0064218,-0.00817922,-0.0303664
20.409,8.04705,-7.92699,1.47763,-0.594083,0.630899,0.0278097,-0.00620783,-0.00790468,-0.030361
20.419,8.04111,-7.92068,1.47791,-0.594411,0.631079,0.0281669,-0.00598813,-0.00762192,-0.0303556
20.429,8.03516,-7.91436,1.4782,-0.594711,0.631235,0.0284855,-0.00576353,-0.00733199,-0.0303503
20.439,8.02921,-7.90805,1.47848,-0.594982,0.631368,0.0287684,-0.0055348,-0.00703592,-0.030345
20.449,8.02326,-7.90174,1.47877,-0.595224,0.631476,0.0290094,-0.00530272,-0.00673477,-0.0303397
20.459,8.01731,-7.89542,1.47906,-0.595437,0.631561,0.0292156,-0.00506803,-0.00642958,-0.0303343
20.469,8.01135,-7.88911,1.47936,-0.59562,0.631621,0.0293927,-0.00483152,-0.00612127,-0.030329
20.479,8.00539,-7.88279,1.47965,-0.595772,0.631657,0.0295422,-0.00459395,-0.00581076,-0.0303236
20.489,7.99944,-7.87647,1.47995,-0.595895,0.631668,0.0296555,-0.00435601,-0.00549904,-0.0303182
20.499,7.99348,-7.87016,1.48025,-0.595987,0.631655,0.0297392,-0.00411838,-0.00518703,-0.0303127
20.509,7.98752,-7.86384,1.48054,-0.59605,0.631617,0.0297992,-0.00388176,-0.0048756,-0.0303072
20.519,7.98156,-7.85752,1.48084,-0.596082,0.631555,0.02984,-0.00364683,-0.00456555,-0.0303017
20.529,7.97559,-7.85121,1.48114,-0.596085,0.63147,0.0298614,-0.00341423,-0.00425768,-0.0302961
20.539,7.96963,-7.8449,1.48144,-0.596058,0.631361,0.0298507,-0.00318453,-0.00395286,-0.0302905
20.569,7.95176,-7.82596,1.48233,-0.595806,0.630897,0.0296804,-0.0025182,-0.00306433,-0.0302733
20.579,7.9458,-7.81965,1.48263,-0.595666,0.630698,0.0295864,-0.00230544,-0.00277911,-0.0302675
20.589,7.93984,-7.81335,1.48292,-0.5955,0.630478,0.0294807,-0.00209817,-0.00250039,-0.0302616
20.599,7.93389,-7.80704,1.48322,-0.595307,0.630237,0.0293602,-0.00189687,-0.00222874,-0.0302557
20.609,7.92794,-7.80074,1.48351,-0.595089,0.629976,0.0292035,-0.00170184,-0.00196484,-0.0302498
20.619,7.92199,-7.79444,1.4838,-0.594846,0.629696,0.0290194,-0.00151337,-0.00170928,-0.0302439
20.629,7.91604,-7.78815,1.48409,-0.59458,0.629398,0.0288153,-0.00133183,-0.00146254,-0.0302379
20.639,7.9101,-7.78186,1.48438,-0.59429,0.629082,0.0285973,-0.00115757,-0.00122502,-0.0302319
20.649,7.90415,-7.77557,1.48466,-0.593979,0.628749,0.0283664,-0.000990908,-0.000997097,-0.0302259
20.659,7.89822,-7.76928,1.48494,-0.593647,0.6284,0.0281119,-0.000832072,-0.000779169,-0.0302198
20.669,7.89228,-7.763,1.48522,-0.593295,0.628035,0.0278409,-0.000681275,-0.000571592,-0.0302138
20.679,7.88635,-7.75672,1.4855,-0.592924,0.627657,0.0275551,-0.000538742,-0.000374643,-0.0302078
20.689,7.88042,-7.75045,1.48577,-0.592536,0.627264,0.027243,-0.000404594,-0.000188639,-0.0302017
20.699,7.8745,-7.74418,1.48605,-0.59213,0.626859,0.0269128,-0.000278954,-1.38294e-05,-0.0301957
20.709,7.86858,-7.73791,1.48631,-0.591709,0.626442,0.0265711,-0.000161973,0.000149626,-0.0301897
20.719,7.86267,-7.73165,1.48658,-0.591273,0.626014,0.0262201,-5.37893e-05,0.000301614,-0.0301836
20.729,7.85676,-7.72539,1.48684,-0.590824,0.625576,0.025852,4.55521e-05,0.000441991,-0.0301776
20.759,7.83905,-7.70664,1.48759,-0.589408,0.624212,0.0247039,0.000290082,0.000792858,-0.0301598
20.769,7.83316,-7.70041,1.48784,-0.588917,0.623743,0.0243092,0.000353695,0.000886391,-0.0301539
20.779,7.82728,-7.69417,1.48808,-0.588418,0.623269,0.0239078,0.000408427,0.000968251,-0.030148
20.789,7.82139,-7.68794,1.48832,-0.587912,0.622791,0.0234914,0.000454405,0.00103846,-0.0301421
20.799,7.81552,-7.68172,1.48855,-0.587401,0.622309,0.0230666,0.000491744,0.00109708,-0.0301363
20.809,7.80965,-7.67549,1.48878,-0.586885,0.621824,0.0226389,0.000520534,0.00114428,-0.0301306
20.819,7.80378,-7.66928,1.489,-0.586366,0.621337,0.0222124,0.000540862,0.00118026,-0.0301248
20.829,7.79792,-7.66307,1.48922,-0.585845,0.62085,0.0217899,0.00055284,0.00120522,-0.0301191
20.839,7.79206,-7.65686,1.48944,-0.585323,0.620362,0.0213742,0.000556596,0.00121941,-0.0301135
20.849,7.78621,-7.65066,1.48965,-0.5848,0.619875,0.0209647,0.000552284,0.00122309,-0.0301078
20.859,7.78037,-7.64447,1.48986,-0.584278,0.619389,0.0205528,0.000540153,0.00121648,-0.0301022
20.869,7.77453,-7.63827,1.49006,-0.583758,0.618906,0.0201426,0.000520452,0.00119983,-0.0300967
20.879,7.76869,-7.63209,1.49026,-0.58324,0.618425,0.0197322,0.000493417,0.00117343,-0.0300911
20.889,7.76286,-7.62591,1.49045,-0.582726,0.617949,0.0193047,0.000459433,0.0011375,-0.0300857
20.899,7.75704,-7.61973,1.49064,-0.582217,0.617476,0.0188675,0.000418849,0.0010923,-0.0300802
20.909,7.75122,-7.61356,1.49083,-0.581713,0.617009,0.0184263,0.000371941,0.0010382,-0.0300748
20.919,7.74541,-7.60739,1.49101,-0.581215,0.616547,0.0179504,0.000318966,0.000975613,-0.0300694
20.929,7.7396,-7.60123,1.49119,-0.580724,0.616092,0.0173098,0.000260275,0.000904951,-0.030064
20.939,7.73379,-7.59507,1.49136,-0.580242,0.615644,0.016544,0.000196193,0.000826645,-0.0300587
20.959,7.7222,-7.58276,1.49167,-0.579302,0.61477,0.0147604,5.29704e-05,0.000648973,-0.0300481
20.969,7.71641,-7.57662,1.49181,-0.578846,0.614345,0.0137907,-2.55959e-05,0.000550532,-0.0300428
20.979,7.71062,-7.57048,1.49194,-0.5784,0.613929,0.0127934,-0.000108395,0.000446299,-0.0300376
20.989,7.70484,-7.56434,1.49207,-0.577966,0.613521,0.0117827,-0.000195128,0.00033675,-0.0300324
20.999,7.69906,-7.55821,1.49218,-0.577542,0.613124,0.0107699,-0.00028549,0.000222358,-0.0300272
21.009,7.69329,-7.55208,1.49228,-0.57713,0.612736,0.00976367,-0.000379016,0.000103445,-0.030022
21.019,7.68752,-7.54595,1.49237,-0.57673,0.612358,0.00877119,-0.000475284,-1.96204e-05,-0.0300168
21.029,7.68175,-7.53983,1.49246,-0.576342,0.611991,0.00779788,-0.000573958,-0.000146387,-0.0300117
21.039,7.67599,-7.53371,1.49253,-0.575967,0.611634,0.0068479,-0.000674732,-0.000276373,-0.0300065
21.049,7.67024,-7.5276,1.49259,-0.575605,0.611288,0.00592435,-0.000777224,-0.000409179,-0.0300014
21.059,7.66448,-7.52149,1.49265,-0.575256,0.610953,0.00502948,-0.000881087,-0.000544378,-0.0299963
21.069,7.65873,-7.51538,1.49269,-0.57492,0.610628,0.00416485,-0.000986024,-0.000681501,-0.0299912
21.079,7.65298,-7.50928,1.49273,-0.574598,0.610315,0.00333143,-0.00109176,-0.000820069,-0.0299862
21.089,7.64724,-7.50318,1.49276,-0.57429,0.610014,0.00252976,-0.00119803,-0.00095961,-0.0299811
21.099,7.6415,-7.49708,1.49278,-0.573995,0.609723,0.00176,-0.00130451,-0.00109973,-0.029976
21.109,7.63576,-7.49098,1.49279,-0.573714,0.609443,0.001022,-0.00141089,-0.00124001,-0.029971
21.119,7.63002,-7.48489,1.4928,-0.573447,0.609175,0.000315406,-0.00151691,-0.00138006,-0.029966
21.129,7.62429,-7.4788,1.4928,-0.573193,0.608918,-0.000360326,-0.00162217,-0.00151958,-0.029961
21.139,7.61856,-7.47271,1.49279,-0.572953,0.608672,-0.00100588,-0.00172636,-0.00165825,-0.029956
21.149,7.61283,-7.46662,1.49278,-0.572727,0.608436,-0.00162205,-0.00182921,-0.00179571,-0.029951
21.159,7.60711,-7.46054,1.49276,-0.572514,0.608211,-0.00220969,-0.00193053,-0.00193156,-0.029946
21.169,7.60138,-7.45446,1.49273,-0.572314,0.607997,-0.00276972,-0.00203004,-0.00206551,-0.0299411
21.179,7.59566,-7.44838,1.4927,-0.572127,0.607794,-0.00330309,-0.0021275,-0.00219726,-0.0299362
21.189,7.58994,-7.4423,1.49267,-0.571953,0.6076,-0.00381078,-0.00222274,-0.00232646,-0.0299313
21.199,7.58422,-7.43623,1.49263,-0.571791,0.607416,-0.00429375,-0.00231559,-0.00245278,-0.0299264
21.209,7.5785,-7.43016,1.49258,-0.571641,0.607242,-0.004753,-0.00240581,-0.00257601,-0.0299215
21.219,7.57279,-7.42408,1.49253,-0.571504,0.607077,-0.00518948,-0.0024932,-0.00269591,-0.0299167
21.229,7.56707,-7.41801,1.49248,-0.571378,0.606921,-0.00560415,-0.00257764,-0.00281222,-0.0299118
21.239,7.56136,-7.41195,1.49242,-0.571263,0.606774,-0.00599793,-0.002659,-0.00292467,-0.029907
21.269,7.54423,-7.39375,1.49222,-0.570981,0.606381,-0.00706298,-0.00288326,-0.00323702,-0.0298928
21.279,7.53852,-7.38769,1.49215,-0.570907,0.606265,-0.00738208,-0.00295105,-0.0033322,-0.0298882
21.289,7.53281,-7.38162,1.49207,-0.570841,0.606156,-0.00768457,-0.00301527,-0.00342264,-0.0298835
21.299,7.5271,-7.37556,1.49199,-0.570785,0.606053,-0.00797121,-0.00307576,-0.00350826,-0.0298789
21.309,7.52139,-7.3695,1.49191,-0.570736,0.605957,-0.00824275,-0.00313244,-0.00358901,-0.0298743
21.319,7.51569,-7.36344,1.49183,-0.570695,0.605867,-0.00849989,-0.00318527,-0.00366477,-0.0298698
21.329,7.50998,-7.35739,1.49174,-0.570661,0.605782,-0.00874332,-0.00323427,-0.00373544,-0.0298653
21.339,7.50427,-7.35133,1.49165,-0.570634,0.605701,-0.00897367,-0.00327944,-0.00380093,-0.0298608
21.349,7.49857,-7.34527,1.49156,-0.570613,0.605626,-0.00919157,-0.00332066,-0.0038613,-0.0298563
21.359,7.49286,-7.33922,1.49147,-0.570598,0.605554,-0.00939761,-0.00335785,-0.00391663,-0.0298519
21.369,7.48716,-7.33316,1.49138,-0.570588,0.605486,-0.00959236,-0.00339102,-0.00396689,-0.0298476
21.379,7.48145,-7.32711,1.49128,-0.570582,0.605422,-0.00977636,-0.00342026,-0.00401204,-0.0298433
21.389,7.47574,-7.32105,1.49118,-0.570581,0.60536,-0.00995012,-0.00344565,-0.00405205,-0.029839
21.399,7.47004,-7.315,1.49108,-0.570583,0.605301,-0.0101142,-0.00346721,-0.00408697,-0.0298347
