timestamp,x,y,z,vx,vy,vz,roll,pitch,yaw
14.75,-9.00013,8.99957,0.182462,-0.00479468,-0.00222517,-0.00387408,1.1545e-05,-2.21359e-05,-0.0201889
14.76,-9.00013,8.99957,0.182462,0.00491724,0.00226388,-0.00386045,-1.1475e-05,2.44677e-05,-0.0202045
14.77,-9.00013,8.99957,0.182462,-0.00479474,-0.00222504,-0.00387409,1.15451e-05,-2.21359e-05,-0.0202189
14.78,-9.00013,8.99957,0.182462,0.00491731,0.00226375,-0.00386045,-1.1475e-05,2.44678e-05,-0.0202345
14.79,-9.00014,8.99957,0.182462,-0.00479481,-0.00222491,-0.0038741,1.15452e-05,-2.21359e-05,-0.020249
14.8,-9.00013,8.99957,0.182462,0.00491738,0.00226361,-0.00386046,-1.14751e-05,2.44678e-05,-0.0202646
14.81,-9.00014,8.99957,0.182462,-0.00479487,-0.00222478,-0.00387411,1.15453e-05,-2.21359e-05,-0.020279
14.82,-9.00013,8.99957,0.182462,0.00491745,0.00226348,-0.00386047,-1.14752e-05,2.44679e-05,-0.0202946
14.83,-9.00014,8.99957,0.182462,-0.00479494,-0.00222465,-0.00387412,1.15454e-05,-2.21359e-05,-0.020309
14.86,-9.00013,8.99957,0.182462,0.00491759,0.00226322,-0.00386049,-1.14754e-05,2.4468e-05,-0.0203546
14.87,-9.00014,8.99957,0.182462,-0.00479507,-0.00222439,-0.00387414,1.15456e-05,-2.21359e-05,-0.020369
14.88,-9.00013,8.99957,0.182462,0.00491766,0.00226308,-0.0038605,-1.14755e-05,2.44681e-05,-0.0203846
14.89,-9.00014,8.99957,0.182462,-0.00479514,-0.00222426,-0.00387415,1.15457e-05,-2.21359e-05,-0.020399
14.9,-9.00013,8.99957,0.182462,0.00491773,0.00226295,-0.00386051,-1.14755e-05,2.44681e-05,-0.0204146
14.91,-9.00014,8.99957,0.182462,-0.0047952,-0.00222413,-0.00387415,1.15458e-05,-2.21359e-05,-0.020429
14.92,-9.00013,8.99957,0.182462,0.0049178,0.00226282,-0.00386052,-1.14756e-05,2.44682e-05,-0.0204446
14.93,-9.00014,8.99957,0.182462,-0.00479527,-0.00222401,-0.00387416,1.15459e-05,-2.21358e-05,-0.0204591
14.94,-9.00013,8.99957,0.182462,0.00491786,0.00226269,-0.00386052,-1.14757e-05,2.44682e-05,-0.0204747
14.95,-9.00014,8.99956,0.182462,-0.00479533,-0.00222388,-0.00387417,1.15461e-05,-2.21358e-05,-0.0204891
14.96,-9.00013,8.99957,0.182462,0.00491793,0.00226255,-0.00386053,-1.14758e-05,2.44683e-05,-0.0205047
14.97,-9.00014,8.99956,0.182462,-0.0047954,-0.00222375,-0.00387418,1.15462e-05,-2.21358e-05,-0.0205191
14.98,-9.00013,8.99957,0.182462,0.004918,0.00226242,-0.00386054,-1.14759e-05,2.44683e-05,-0.0205347
14.99,-9.00014,8.99956,0.182462,-0.00479546,-0.00222362,-0.00387419,1.15463e-05,-2.21358e-05,-0.0205491
15,-9.00013,8.99957,0.182462,0.00491807,0.00226229,-0.00386055,-1.1476e-05,2.44684e-05,-0.0205647
15.01,-9.00014,8.99956,0.182462,-0.00479553,-0.00222349,-0.0038742,1.15464e-05,-2.21358e-05,-0.0205791
15.02,-9.00013,8.99957,0.182462,0.00491814,0.00226216,-0.00386056,-1.1476e-05,2.44684e-05,-0.0205947
15.03,-9.00014,8.99956,0.182462,-0.00479559,-0.00222336,-0.00387421,1.15465e-05,-2.21358e-05,-0.0206091
15.04,-9.00013,8.99957,0.182462,0.00491821,0.00226202,-0.00386057,-1.14761e-05,2.44685e-05,-0.0206247
15.05,-9.00014,8.99956,0.182462,-0.00479566,-0.00222323,-0.00387422,1.15466e-05,-2.21358e-05,-0.0206391
15.06,-9.00013,8.99956,0.182462,0.00491828,0.00226189,-0.00386058,-1.14762e-05,2.44685e-05,-0.0206547
15.07,-9.00014,8.99956,0.182462,-0.00479572,-0.0022231,-0.00387422,1.15467e-05,-2.21358e-05,-0.0206691
15.08,-9.00013,8.99956,0.182462,0.00491835,0.00226176,-0.00386059,-1.14763e-05,2.44686e-05,-0.0206847
15.09,-9.00014,8.99956,0.182462,-0.00479579,-0.00222297,-0.00387423,1.15468e-05,-2.21358e-05,-0.0206992
15.1,-9.00013,8.99956,0.182462,0.00491842,0.00226163,-0.00386059,-1.14764e-05,2.44687e-05,-0.0207147
15.11,-9.00014,8.99956,0.182462,-0.00479585,-0.00222284,-0.00387424,1.15469e-05,-2.21358e-05,-0.0207292
15.12,-9.00013,8.99956,0.182462,0.00491849,0.00226149,-0.0038606,-1.14765e-05,2.44687e-05,-0.0207448
15.13,-9.00014,8.99956,0.182462,-0.00479592,-0.00222272,-0.00387425,1.1547e-05,-2.21358e-05,-0.0207592
15.14,-9.00013,8.99956,0.182462,0.00491856,0.00226136,-0.00386061,-1.14765e-05,2.44688e-05,-0.0207748
15.15,-9.00014,8.99956,0.182462,-0.00479598,-0.00222259,-0.00387426,1.15471e-05,-2.21358e-05,-0.0207892
15.16,-9.00013,8.99956,0.182462,0.00491863,0.00226123,-0.00386062,-1.14766e-05,2.44688e-05,-0.0208048
15.17,-9.00014,8.99956,0.182462,-0.00479605,-0.00222246,-0.00387427,1.15472e-05,-2.21357e-05,-0.0208192
15.18,-9.00013,8.99956,0.182462,0.0049187,0.0022611,-0.00386063,-1.14767e-05,2.44689e-05,-0.0208348
15.19,-9.00014,8.99956,0.182462,-0.00479611,-0.00222233,-0.00387428,1.15473e-05,-2.21357e-05,-0.0208492
15.2,-9.00013,8.99956,0.182462,0.00491877,0.00226097,-0.00386064,-1.14768e-05,2.44689e-05,-0.0208648
15.21,-9.00014,8.99956,0.182462,-0.00479618,-0.0022222,-0.00387429,1.15474e-05,-2.21357e-05,-0.0208792
15.22,-9.00013,8.99956,0.182462,0.00491884,0.00226083,-0.00386065,-1.14769e-05,2.4469e-05,-0.0208948
15.23,-9.00014,8.99956,0.182462,-0.00479624,-0.00222207,-0.00387429,1.15475e-05,-2.21357e-05,-0.0209092
15.27,-9.00014,8.99955,0.182462,-0.00479638,-0.00222181,-0.00387431,1.15477e-05,-2.21357e-05,-0.0209692
15.28,-9.00013,8.99956,0.182462,0.00491905,0.00226044,-0.00386067,-1.14771e-05,2.44691e-05,-0.0209848
15.29,-9.00014,8.99955,0.182462,-0.00479644,-0.00222168,-0.00387432,1.15478e-05,-2.21357e-05,-0.0209993
15.3,-9.00013,8.99956,0.182462,0.00491912,0.0022603,-0.00386068,-1.14772e-05,2.44692e-05,-0.0210148
15.31,-9.00014,8.99955,0.182462,-0.00479651,-0.00222155,-0.00387433,1.1548e-05,-2.21357e-05,-0.0210293
15.32,-9.00013,8.99956,0.182462,0.00491919,0.00226017,-0.00386069,-1.14773e-05,2.44693e-05,-0.0210449
15.33,-9.00014,8.99955,0.182462,-0.00479657,-0.00222143,-0.00387434,1.15481e-05,-2.21357e-05,-0.0210593
15.34,-9.00013,8.99956,0.182462,0.00491926,0.00226004,-0.0038607,-1.14774e-05,2.44693e-05,-0.0210749
15.35,-9.00014,8.99955,0.182462,-0.00479664,-0.0022213,-0.00387435,1.15482e-05,-2.21357e-05,-0.0210893
15.36,-9.00013,8.99955,0.182462,0.00491933,0.00225991,-0.00386071,-1.14775e-05,2.44694e-05,-0.0211049
15.37,-9.00014,8.99955,0.182462,-0.0047967,-0.00222117,-0.00387436,1.15483e-05,-2.21357e-05,-0.0211193
15.38,-9.00013,8.99955,0.182462,0.0049194,0.00225977,-0.00386072,-1.14775e-05,2.44694e-05,-0.0211349
15.39,-9.00014,8.99955,0.182462,-0.00479677,-0.00222104,-0.00387436,1.15484e-05,-2.21357e-05,-0.0211493
15.4,-9.00013,8.99955,0.182462,0.00491947,0.00225964,-0.00386072,-1.14776e-05,2.44695e-05,-0.0211649
15.41,-9.00014,8.99955,0.182462,-0.00479683,-0.00222091,-0.00387437,1.15485e-05,-2.21356e-05,-0.0211793
15.42,-9.00013,8.99955,0.182462,0.00491954,0.00225951,-0.00386073,-1.14777e-05,2.44695e-05,-0.0211949
15.43,-9.00014,8.99955,0.182462,-0.0047969,-0.00222078,-0.00387438,1.15486e-05,-2.21356e-05,-0.0212093
15.44,-9.00013,8.99955,0.182462,0.0049196,0.00225938,-0.00386074,-1.14778e-05,2.44696e-05,-0.0212249
15.47,-9.00014,8.99955,0.182462,-0.00479703,-0.00222052,-0.0038744,1.15488e-05,-2.21356e-05,-0.0212693
15.48,-9.00013,8.99955,0.182462,0.00491974,0.00225911,-0.00386076,-1.14779e-05,2.44697e-05,-0.0212849
15.49,-9.00014,8.99955,0.182462,-0.00479709,-0.00222039,-0.00387441,1.15489e-05,-2.21356e-05,-0.0212993
15.5,-9.00013,8.99955,0.182462,0.00491981,0.00225898,-0.00386077,-1.1478e-05,2.44697e-05,-0.0213149
15.51,-9.00014,8.99955,0.182462,-0.00479716,-0.00222026,-0.00387442,1.1549e-05,-2.21356e-05,-0.0213293
15.52,-9.00013,8.99955,0.182462,0.00491988,0.00225885,-0.00386078,-1.14781e-05,2.44698e-05,-0.0213449
15.53,-9.00014,8.99955,0.182462,-0.00479722,-0.00222013,-0.00387443,1.15491e-05,-2.21356e-05,-0.0213593
15.54,-9.00013,8.99955,0.182462,0.00491995,0.00225871,-0.00386079,-1.14782e-05,2.44699e-05,-0.0213749
15.55,-9.00014,8.99954,0.182462,-0.00479729,-0.00222001,-0.00387443,1.15492e-05,-2.21356e-05,-0.0213894
15.56,-9.00013,8.99955,0.182462,0.00492002,0.00225858,-0.00386079,-1.14783e-05,2.44699e-05,-0.0214049
15.57,-9.00014,8.99954,0.182462,-0.00479735,-0.00221988,-0.00387444,1.15493e-05,-2.21356e-05,-0.0214194
15.58,-9.00013,8.99955,0.182462,0.00492009,0.00225845,-0.0038608,-1.14784e-05,2.447e-05,-0.0214349
15.59,-9.00014,8.99954,0.182462,-0.00479742,-0.00221975,-0.00387445,1.15494e-05,-2.21356e-05,-0.0214494
15.6,-9.00013,8.99955,0.182462,0.00492016,0.00225832,-0.00386081,-1.14784e-05,2.447e-05,-0.021465
15.61,-9.00014,8.99954,0.182462,-0.00479748,-0.00221962,-0.00387446,1.15495e-05,-2.21356e-05,-0.0214794
15.62,-9.00014,8.99955,0.182462,0.00492023,0.00225818,-0.00386082,-1.14785e-05,2.44701e-05,-0.021495
15.63,-9.00014,8.99954,0.182462,-0.00479755,-0.00221949,-0.00387447,1.15496e-05,-2.21356e-05,-0.0215094
15.64,-9.00014,8.99955,0.182462,0.0049203,0.00225805,-0.00386083,-1.14786e-05,2.44701e-05,-0.021525
15.65,-9.00014,8.99954,0.182462,-0.00479761,-0.00221936,-0.00387448,1.15497e-05,-2.21355e-05,-0.0215394
15.66,-9.00014,8.99954,0.182462,0.00492037,0.00225792,-0.00386084,-1.14787e-05,2.44702e-05,-0.021555
15.67,-9.00014,8.99954,0.182462,-0.00479768,-0.00221923,-0.00387449,1.15498e-05,-2.21355e-05,-0.0215694
15.68,-9.00014,8.99954,0.182462,0.00492044,0.00225779,-0.00386085,-1.14788e-05,2.44702e-05,-0.021585
15.69,-9.00014,8.99954,0.182462,-0.00479774,-0.0022191,-0.00387449,1.155e-05,-2.21355e-05,-0.0215994
15.7,-9.00014,8.99954,0.182462,0.00492051,0.00225765,-0.00386086,-1.14789e-05,2.44703e-05,-0.021615
15.71,-9.00014,8.99954,0.182462,-0.00479781,-0.00221897,-0.0038745,1.15501e-05,-2.21355e-05,-0.0216294
15.72,-9.00014,8.99954,0.182462,0.00492058,0.00225752,-0.00386086,-1.14789e-05,2.44703e-05,-0.021645
15.73,-9.00014,8.99954,0.182462,-0.00479787,-0.00221884,-0.00387451,1.15502e-05,-2.21355e-05,-0.0216594
15.76,-9.00014,8.99954,0.182462,0.00492072,0.00225726,-0.00386088,-1.14791e-05,2.44704e-05,-0.021705
15.77,-9.00015,8.99954,0.182462,-0.004798,-0.00221859,-0.00387453,1.15504e-05,-2.21355e-05,-0.0217194
15.78,-9.00014,8.99954,0.182462,0.00492079,0.00225712,-0.00386089,-1.14792e-05,2.44705e-05,-0.021735
15.79,-9.00015,8.99954,0.182462,-0.00479807,-0.00221846,-0.00387454,1.15505e-05,-2.21355e-05,-0.0217494
15.8,-9.00014,8.99954,0.182462,0.00492086,0.00225699,-0.0038609,-1.14793e-05,2.44706e-05,-0.021765
15.81,-9.00015,8.99954,0.182462,-0.00479813,-0.00221833,-0.00387455,1.15506e-05,-2.21355e-05,-0.0217794
15.82,-9.00014,8.99954,0.182462,0.00492093,0.00225686,-0.00386091,-1.14794e-05,2.44706e-05,-0.021795
15.83,-9.00015,8.99954,0.182462,-0.0047982,-0.0022182,-0.00387456,1.15507e-05,-2.21355e-05,-0.0218094
15.84,-9.00014,8.99954,0.182462,0.00492099,0.00225673,-0.00386092,-1.14794e-05,2.44707e-05,-0.021825
15.85,-9.00015,8.99953,0.182462,-0.00479826,-0.00221807,-0.00387456,1.15508e-05,-2.21355e-05,-0.0218394
15.86,-9.00014,8.99954,0.182462,0.00492106,0.00225659,-0.00386093,-1.14795e-05,2.44707e-05,-0.021855
15.87,-9.00015,8.99953,0.182462,-0.00479833,-0.00221794,-0.00387457,1.15509e-05,-2.21355e-05,-0.0218694
15.88,-9.00014,8.99954,0.182462,0.00492113,0.00225646,-0.00386093,-1.14796e-05,2.44708e-05,-0.021885
15.89,-9.00015,8.99953,0.182462,-0.00479839,-0.00221781,-0.00387458,1.1551e-05,-2.21355e-05,-0.0218994
15.9,-9.00014,8.99954,0.182462,0.0049212,0.00225633,-0.00386094,-1.14797e-05,2.44708e-05,-0.021915
15.91,-9.00015,8.99953,0.182462,-0.00479846,-0.00221768,-0.00387459,1.15511e-05,-2.21354e-05,-0.0219294
15.92,-9.00014,8.99954,0.182462,0.00492127,0.0022562,-0.00386095,-1.14798e-05,2.44709e-05,-0.021945
15.93,-9.00015,8.99953,0.182462,-0.00479852,-0.00221755,-0.0038746,1.15512e-05,-2.21354e-05,-0.0219594
15.94,-9.00014,8.99954,0.182462,0.00492134,0.00225607,-0.00386096,-1.14799e-05,2.44709e-05,-0.021975
15.95,-9.00015,8.99953,0.182462,-0.00479859,-0.00221743,-0.00387461,1.15513e-05,-2.21354e-05,-0.0219894
15.96,-9.00014,8.99953,0.182462,0.00492141,0.00225593,-0.00386097,-1.14799e-05,2.4471e-05,-0.022005
15.97,-9.00015,8.99953,0.182462,-0.00479865,-0.0022173,-0.00387462,1.15514e-05,-2.21354e-05,-0.0220194
15.98,-9.00014,8.99953,0.182462,0.00492148,0.0022558,-0.00386098,-1.148e-05,2.4471e-05,-0.022035
15.99,-9.00015,8.99953,0.182462,-0.00479872,-0.00221717,-0.00387463,1.15515e-05,-2.21354e-05,-0.0220494
16,-9.00014,8.99953,0.182462,0.00492155,0.00225567,-0.00386099,-1.14801e-05,2.44711e-05,-0.022065
16.01,-9.00015,8.99953,0.182462,-0.00479878,-0.00221704,-0.00387463,1.15516e-05,-2.21354e-05,-0.0220794
16.02,-9.00014,8.99953,0.182462,0.00492162,0.00225554,-0.003861,-1.14802e-05,2.44711e-05,-0.022095
16.03,-9.00015,8.99953,0.182462,-0.00479885,-0.00221691,-0.00387464,1.15517e-05,-2.21354e-05,-0.0221094
16.04,-9.00014,8.99953,0.182462,0.00492169,0.0022554,-0.003861,-1.14803e-05,2.44712e-05,-0.022125
16.07,-9.00015,8.99953,0.182462,-0.00479898,-0.00221665,-0.00387466,1.15519e-05,-2.21354e-05,-0.0221694
16.08,-9.00014,8.99953,0.182462,0.00492183,0.00225514,-0.00386102,-1.14804e-05,2.44713e-05,-0.022185
16.09,-9.00015,8.99953,0.182462,-0.00479905,-0.00221652,-0.00387467,1.15521e-05,-2.21354e-05,-0.0221994
16.1,-9.00014,8.99953,0.182462,0.0049219,0.00225501,-0.00386103,-1.14805e-05,2.44714e-05,-0.022215
16.11,-9.00015,8.99953,0.182462,-0.00479911,-0.00221639,-0.00387468,1.15522e-05,-2.21354e-05,-0.0222294
16.12,-9.00014,8.99953,0.182462,0.00492197,0.00225487,-0.00386104,-1.14806e-05,2.44714e-05,-0.022245
16.13,-9.00015,8.99953,0.182462,-0.00479918,-0.00221626,-0.00387469,1.15523e-05,-2.21354e-05,-0.0222594
16.14,-9.00014,8.99953,0.182462,0.00492204,0.00225474,-0.00386105,-1.14807e-05,2.44715e-05,-0.022275
16.15,-9.00015,8.99952,0.182462,-0.00479924,-0.00221613,-0.0038747,1.15524e-05,-2.21353e-05,-0.0222894
16.16,-9.00014,8.99953,0.182462,0.00492211,0.00225461,-0.00386106,-1.14808e-05,2.44715e-05,-0.022305
16.17,-9.00015,8.99952,0.182462,-0.00479931,-0.00221601,-0.0038747,1.15525e-05,-2.21353e-05,-0.0223194
16.18,-9.00014,8.99953,0.182462,0.00492217,0.00225448,-0.00386107,-1.14809e-05,2.44716e-05,-0.022335
16.19,-9.00015,8.99952,0.182462,-0.00479937,-0.00221588,-0.00387471,1.15526e-05,-2.21353e-05,-0.0223494
16.2,-9.00014,8.99953,0.182462,0.00492224,0.00225434,-0.00386107,-1.14809e-05,2.44716e-05,-0.022365
16.21,-9.00015,8.99952,0.182462,-0.00479944,-0.00221575,-0.00387472,1.15527e-05,-2.21353e-05,-0.0223794
16.22,-9.00014,8.99953,0.182462,0.00492231,0.00225421,-0.00386108,-1.1481e-05,2.44717e-05,-0.022395
16.23,-9.00015,8.99952,0.182462,-0.0047995,-0.00221562,-0.00387473,1.15528e-05,-2.21353e-05,-0.0224094
16.24,-9.00014,8.99953,0.182462,0.00492238,0.00225408,-0.00386109,-1.14811e-05,2.44717e-05,-0.022425
16.25,-9.00015,8.99952,0.182462,-0.00479957,-0.00221549,-0.00387474,1.15529e-05,-2.21353e-05,-0.0224394
16.26,-9.00014,8.99952,0.182462,0.00492245,0.00225395,-0.0038611,-1.14812e-05,2.44718e-05,-0.022455
16.27,-9.00015,8.99952,0.182462,-0.00479963,-0.00221536,-0.00387475,1.1553e-05,-2.21353e-05,-0.0224694
16.28,-9.00014,8.99952,0.182462,0.00492252,0.00225381,-0.00386111,-1.14813e-05,2.44718e-05,-0.022485
16.29,-9.00015,8.99952,0.182462,-0.0047997,-0.00221523,-0.00387476,1.15531e-05,-2.21353e-05,-0.0224994
16.3,-9.00014,8.99952,0.182462,0.00492259,0.00225368,-0.00386112,-1.14814e-05,2.44719e-05,-0.022515
16.31,-9.00015,8.99952,0.182462,-0.00479976,-0.0022151,-0.00387477,1.15532e-05,-2.21353e-05,-0.0225294
16.32,-9.00014,8.99952,0.182462,0.00492266,0.00225355,-0.00386113,-1.14814e-05,2.4472e-05,-0.022545
16.33,-9.00015,8.99952,0.182462,-0.00479983,-0.00221497,-0.00387477,1.15533e-05,-2.21353e-05,-0.0225594
16.34,-9.00014,8.99952,0.182462,0.00492273,0.00225342,-0.00386114,-1.14815e-05,2.4472e-05,-0.022575
16.36,-9.00014,8.99952,0.182462,0.0049228,0.00225328,-0.00386114,-1.14816e-05,2.44721e-05,-0.022605
16.37,-9.00015,8.99952,0.182462,-0.00479996,-0.00221471,-0.00387479,1.15535e-05,-2.21353e-05,-0.0226194
16.38,-9.00014,8.99952,0.182462,0.00492287,0.00225315,-0.00386115,-1.14817e-05,2.44721e-05,-0.022635
16.39,-9.00015,8.99952,0.182462,-0.00480002,-0.00221459,-0.0038748,1.15536e-05,-2.21353e-05,-0.0226494
16.4,-9.00014,8.99952,0.182462,0.00492294,0.00225302,-0.00386116,-1.14818e-05,2.44722e-05,-0.022665
16.41,-9.00015,8.99952,0.182462,-0.00480009,-0.00221446,-0.00387481,1.15537e-05,-2.21352e-05,-0.0226794
16.42,-9.00014,8.99952,0.182462,0.00492301,0.00225289,-0.00386117,-1.14818e-05,2.44722e-05,-0.022695
16.43,-9.00015,8.99952,0.182462,-0.00480015,-0.00221433,-0.00387482,1.15538e-05,-2.21352e-05,-0.0227094
16.44,-9.00014,8.99952,0.182462,0.00492308,0.00225275,-0.00386118,-1.14819e-05,2.44723e-05,-0.022725
16.45,-9.00015,8.99951,0.182462,-0.00480022,-0.0022142,-0.00387483,1.15539e-05,-2.21352e-05,-0.0227394
16.47,-9.00015,8.99951,0.182462,-0.00480028,-0.00221407,-0.00387484,1.15541e-05,-2.21352e-05,-0.0227694
16.48,-9.00014,8.99952,0.182462,0.00492321,0.00225249,-0.0038612,-1.14821e-05,2.44724e-05,-0.0227849
16.49,-9.00015,8.99951,0.182462,-0.00480035,-0.00221394,-0.00387484,1.15542e-05,-2.21352e-05,-0.0227994
16.5,-9.00014,8.99952,0.182462,0.00492328,0.00225236,-0.00386121,-1.14822e-05,2.44724e-05,-0.0228149
16.51,-9.00015,8.99951,0.182462,-0.00480041,-0.00221381,-0.00387485,1.15543e-05,-2.21352e-05,-0.0228294
16.52,-9.00014,8.99952,0.182462,0.00492335,0.00225222,-0.00386121,-1.14823e-05,2.44725e-05,-0.0228449
16.53,-9.00015,8.99951,0.182462,-0.00480048,-0.00221368,-0.00387486,1.15544e-05,-2.21352e-05,-0.0228593
16.54,-9.00014,8.99952,0.182462,0.00492342,0.00225209,-0.00386122,-1.14823e-05,2.44725e-05,-0.0228749
16.55,-9.00015,8.99951,0.182462,-0.00480054,-0.00221355,-0.00387487,1.15545e-05,-2.21352e-05,-0.0228893
16.56,-9.00014,8.99952,0.182462,0.00492349,0.00225196,-0.00386123,-1.14824e-05,2.44726e-05,-0.0229049
16.57,-9.00015,8.99951,0.182462,-0.00480061,-0.00221342,-0.00387488,1.15546e-05,-2.21352e-05,-0.0229193
16.58,-9.00014,8.99951,0.182462,0.00492356,0.00225183,-0.00386124,-1.14825e-05,2.44726e-05,-0.0229349
16.59,-9.00015,8.99951,0.182462,-0.00480067,-0.0022133,-0.00387489,1.15547e-05,-2.21352e-05,-0.0229493
16.6,-9.00015,8.99951,0.182462,0.00492363,0.00225169,-0.00386125,-1.14826e-05,2.44727e-05,-0.0229649
16.61,-9.00015,8.99951,0.182462,-0.00480074,-0.00221317,-0.0038749,1.15548e-05,-2.21352e-05,-0.0229793
16.62,-9.00015,8.99951,0.182462,0.0049237,0.00225156,-0.00386126,-1.14827e-05,2.44728e-05,-0.0229949
16.63,-9.00015,8.99951,0.182462,-0.0048008,-0.00221304,-0.00387491,1.15549e-05,-2.21352e-05,-0.0230093
16.64,-9.00015,8.99951,0.182462,0.00492377,0.00225143,-0.00386127,-1.14828e-05,2.44728e-05,-0.0230249
16.65,-9.00015,8.99951,0.182462,-0.00480087,-0.00221291,-0.00387491,1.1555e-05,-2.21352e-05,-0.0230393
16.66,-9.00015,8.99951,0.182462,0.00492384,0.0022513,-0.00386127,-1.14828e-05,2.44729e-05,-0.0230549
16.67,-9.00015,8.99951,0.182462,-0.00480093,-0.00221278,-0.00387492,1.15551e-05,-2.21352e-05,-0.0230693
16.68,-9.00015,8.99951,0.182462,0.00492391,0.00225116,-0.00386128,-1.14829e-05,2.44729e-05,-0.0230849
16.69,-9.00015,8.99951,0.182462,-0.004801,-0.00221265,-0.00387493,1.15552e-05,-2.21351e-05,-0.0230993
16.7,-9.00015,8.99951,0.182462,0.00492398,0.00225103,-0.00386129,-1.1483e-05,2.4473e-05,-0.0231149
16.71,-9.00015,8.99951,0.182462,-0.00480106,-0.00221252,-0.00387494,1.15553e-05,-2.21351e-05,-0.0231293
16.72,-9.00015,8.99951,0.182462,0.00492405,0.0022509,-0.0038613,-1.14831e-05,2.4473e-05,-0.0231449
16.73,-9.00016,8.99951,0.182462,-0.00480113,-0.00221239,-0.00387495,1.15554e-05,-2.21351e-05,-0.0231593
16.74,-9.00015,8.99951,0.182462,0.00492411,0.00225077,-0.00386131,-1.14832e-05,2.44731e-05,-0.0231749
16.76,-9.00015,8.99951,0.182462,0.00492418,0.00225063,-0.00386132,-1.14833e-05,2.44731e-05,-0.0232048
16.77,-9.00016,8.9995,0.182462,-0.00480126,-0.00221213,-0.00387497,1.15556e-05,-2.21351e-05,-0.0232193
16.78,-9.00015,8.99951,0.182462,0.00492425,0.0022505,-0.00386133,-1.14833e-05,2.44732e-05,-0.0232348
16.79,-9.00016,8.9995,0.182462,-0.00480132,-0.002212,-0.00387498,1.15557e-05,-2.21351e-05,-0.0232492
16.8,-9.00015,8.99951,0.182462,0.00492432,0.00225037,-0.00386134,-1.14834e-05,2.44732e-05,-0.0232648
16.81,-9.00016,8.9995,0.182462,-0.00480138,-0.00221188,-0.00387498,1.15558e-05,-2.21351e-05,-0.0232792
16.82,-9.00015,8.99951,0.182462,0.00492439,0.00225024,-0.00386134,-1.14835e-05,2.44733e-05,-0.0232948
16.83,-9.00016,8.9995,0.182462,-0.00480145,-0.00221175,-0.00387499,1.15559e-05,-2.21351e-05,-0.0233092
16.84,-9.00015,8.99951,0.182462,0.00492446,0.0022501,-0.00386135,-1.14836e-05,2.44733e-05,-0.0233248
16.85,-9.00016,8.9995,0.182462,-0.00480151,-0.00221162,-0.003875,1.1556e-05,-2.21351e-05,-0.0233392
16.88,-9.00015,8.9995,0.182462,0.0049246,0.00224984,-0.00386137,-1.14838e-05,2.44734e-05,-0.0233848
16.89,-9.00016,8.9995,0.182462,-0.00480164,-0.00221136,-0.00387502,1.15563e-05,-2.21351e-05,-0.0233992
16.9,-9.00015,8.9995,0.182462,0.00492467,0.00224971,-0.00386138,-1.14838e-05,2.44735e-05,-0.0234148
16.91,-9.00016,8.9995,0.182462,-0.00480171,-0.00221123,-0.00387503,1.15564e-05,-2.21351e-05,-0.0234292
16.92,-9.00015,8.9995,0.182462,0.00492474,0.00224957,-0.00386139,-1.14839e-05,2.44736e-05,-0.0234448
16.93,-9.00016,8.9995,0.182462,-0.00480177,-0.0022111,-0.00387504,1.15565e-05,-2.21351e-05,-0.0234592
16.94,-9.00015,8.9995,0.182462,0.00492481,0.00224944,-0.0038614,-1.1484e-05,2.44736e-05,-0.0234748
16.95,-9.00016,8.9995,0.182462,-0.00480184,-0.00221097,-0.00387504,1.15566e-05,-2.2135e-05,-0.0234892
16.96,-9.00015,8.9995,0.182462,0.00492488,0.00224931,-0.00386141,-1.14841e-05,2.44737e-05,-0.0235048
16.97,-9.00016,8.9995,0.182462,-0.0048019,-0.00221084,-0.00387505,1.15567e-05,-2.2135e-05,-0.0235192
16.98,-9.00015,8.9995,0.182462,0.00492495,0.00224918,-0.00386141,-1.14842e-05,2.44737e-05,-0.0235347
16.99,-9.00016,8.9995,0.182462,-0.00480197,-0.00221071,-0.00387506,1.15568e-05,-2.2135e-05,-0.0235491
17,-9.00015,8.9995,0.182462,0.00492501,0.00224904,-0.00386142,-1.14843e-05,2.44738e-05,-0.0235647
17.01,-9.00016,8.9995,0.182462,-0.00480203,-0.00221058,-0.00387507,1.15569e-05,-2.2135e-05,-0.0235791
17.02,-9.00015,8.9995,0.182462,0.00492508,0.00224891,-0.00386143,-1.14843e-05,2.44738e-05,-0.0235947
17.03,-9.00016,8.9995,0.182462,-0.0048021,-0.00221046,-0.00387508,1.1557e-05,-2.2135e-05,-0.0236091
17.04,-9.00015,8.9995,0.182462,0.00492515,0.00224878,-0.00386144,-1.14844e-05,2.44739e-05,-0.0236247
17.05,-9.00016,8.9995,0.182462,-0.00480216,-0.00221033,-0.00387509,1.15571e-05,-2.2135e-05,-0.0236391
17.06,-9.00015,8.9995,0.182462,0.00492522,0.00224864,-0.00386145,-1.14845e-05,2.44739e-05,-0.0236547
17.07,-9.00016,8.99949,0.182462,-0.00480223,-0.0022102,-0.0038751,1.15572e-05,-2.2135e-05,-0.0236691
17.08,-9.00015,8.9995,0.182462,0.00492529,0.00224851,-0.00386146,-1.14846e-05,2.4474e-05,-0.0236847
17.09,-9.00016,8.99949,0.182462,-0.00480229,-0.00221007,-0.00387511,1.15573e-05,-2.2135e-05,-0.0236991
17.1,-9.00015,8.9995,0.182462,0.00492536,0.00224838,-0.00386147,-1.14847e-05,2.4474e-05,-0.0237147
17.11,-9.00016,8.99949,0.182462,-0.00480236,-0.00220994,-0.00387511,1.15574e-05,-2.2135e-05,-0.0237291
17.12,-9.00015,8.9995,0.182462,0.00492543,0.00224825,-0.00386148,-1.14848e-05,2.44741e-05,-0.0237447
17.13,-9.00016,8.99949,0.182462,-0.00480242,-0.00220981,-0.00387512,1.15575e-05,-2.2135e-05,-0.0237591
17.14,-9.00015,8.9995,0.182462,0.0049255,0.00224811,-0.00386148,-1.14848e-05,2.44741e-05,-0.0237746
17.18,-9.00015,8.99949,0.182462,0.00492564,0.00224785,-0.0038615,-1.1485e-05,2.44742e-05,-0.0238346
17.19,-9.00016,8.99949,0.182462,-0.00480262,-0.00220942,-0.00387515,1.15578e-05,-2.2135e-05,-0.023849
17.2,-9.00015,8.99949,0.182462,0.00492571,0.00224772,-0.00386151,-1.14851e-05,2.44743e-05,-0.0238646
17.21,-9.00016,8.99949,0.182462,-0.00480268,-0.00220929,-0.00387516,1.15579e-05,-2.2135e-05,-0.023879
17.22,-9.00015,8.99949,0.182462,0.00492577,0.00224758,-0.00386152,-1.14852e-05,2.44744e-05,-0.0238946
17.23,-9.00016,8.99949,0.182462,-0.00480275,-0.00220916,-0.00387517,1.1558e-05,-2.21349e-05,-0.023909
17.24,-9.00015,8.99949,0.182462,0.00492584,0.00224745,-0.00386153,-1.14852e-05,2.44744e-05,-0.0239246
17.25,-9.00016,8.99949,0.182462,-0.00480281,-0.00220903,-0.00387518,1.15581e-05,-2.21349e-05,-0.023939
17.26,-9.00015,8.99949,0.182462,0.00492591,0.00224732,-0.00386154,-1.14853e-05,2.44745e-05,-0.0239546
17.27,-9.00016,8.99949,0.182462,-0.00480288,-0.00220891,-0.00387518,1.15583e-05,-2.21349e-05,-0.023969
17.28,-9.00015,8.99949,0.182462,0.00492598,0.00224719,-0.00386155,-1.14854e-05,2.44745e-05,-0.0239845
17.29,-9.00016,8.99949,0.182462,-0.00480294,-0.00220878,-0.00387519,1.15584e-05,-2.21349e-05,-0.0239989
17.3,-9.00015,8.99949,0.182462,0.00492605,0.00224705,-0.00386155,-1.14855e-05,2.44746e-05,-0.0240145
17.31,-9.00016,8.99949,0.182462,-0.00480301,-0.00220865,-0.0038752,1.15585e-05,-2.21349e-05,-0.0240289
17.32,-9.00015,8.99949,0.182462,0.00492612,0.00224692,-0.00386156,-1.14856e-05,2.44746e-05,-0.0240445
17.33,-9.00016,8.99949,0.182462,-0.00480307,-0.00220852,-0.00387521,1.15586e-05,-2.21349e-05,-0.0240589
17.36,-9.00015,8.99949,0.182462,0.00492626,0.00224666,-0.00386158,-1.14857e-05,2.44747e-05,-0.0241045
17.37,-9.00016,8.99948,0.182462,-0.0048032,-0.00220826,-0.00387523,1.15588e-05,-2.21349e-05,-0.0241189
17.38,-9.00015,8.99949,0.182462,0.00492633,0.00224652,-0.00386159,-1.14858e-05,2.44748e-05,-0.0241345
17.39,-9.00016,8.99948,0.182462,-0.00480327,-0.00220813,-0.00387524,1.15589e-05,-2.21349e-05,-0.0241489
17.4,-9.00015,8.99949,0.182462,0.0049264,0.00224639,-0.0038616,-1.14859e-05,2.44748e-05,-0.0241645
17.41,-9.00016,8.99948,0.182462,-0.00480333,-0.002208,-0.00387525,1.1559e-05,-2.21349e-05,-0.0241789
17.42,-9.00015,8.99949,0.182462,0.00492647,0.00224626,-0.00386161,-1.1486e-05,2.44749e-05,-0.0241944
17.43,-9.00016,8.99948,0.182462,-0.0048034,-0.00220787,-0.00387525,1.15591e-05,-2.21349e-05,-0.0242088
17.44,-9.00015,8.99949,0.182462,0.00492653,0.00224613,-0.00386162,-1.14861e-05,2.44749e-05,-0.0242244
17.45,-9.00016,8.99948,0.182462,-0.00480346,-0.00220774,-0.00387526,1.15592e-05,-2.21349e-05,-0.0242388
17.46,-9.00015,8.99949,0.182462,0.0049266,0.00224599,-0.00386162,-1.14862e-05,2.4475e-05,-0.0242544
17.47,-9.00016,8.99948,0.182462,-0.00480353,-0.00220761,-0.00387527,1.15593e-05,-2.21349e-05,-0.0242688
17.48,-9.00015,8.99948,0.182462,0.00492667,0.00224586,-0.00386163,-1.14862e-05,2.4475e-05,-0.0242844
17.49,-9.00016,8.99948,0.182462,-0.00480359,-0.00220749,-0.00387528,1.15594e-05,-2.21349e-05,-0.0242988
17.5,-9.00015,8.99948,0.182462,0.00492674,0.00224573,-0.00386164,-1.14863e-05,2.44751e-05,-0.0243144
17.51,-9.00016,8.99948,0.182462,-0.00480366,-0.00220736,-0.00387529,1.15595e-05,-2.21349e-05,-0.0243288
17.52,-9.00015,8.99948,0.182462,0.00492681,0.0022456,-0.00386165,-1.14864e-05,2.44751e-05,-0.0243443
17.53,-9.00016,8.99948,0.182462,-0.00480372,-0.00220723,-0.0038753,1.15596e-05,-2.21348e-05,-0.0243588
17.54,-9.00015,8.99948,0.182462,0.00492688,0.00224546,-0.00386166,-1.14865e-05,2.44752e-05,-0.0243743
17.55,-9.00016,8.99948,0.182462,-0.00480379,-0.0022071,-0.00387531,1.15597e-05,-2.21348e-05,-0.0243887
17.56,-9.00016,8.99948,0.182462,0.00492695,0.00224533,-0.00386167,-1.14866e-05,2.44752e-05,-0.0244043
17.57,-9.00016,8.99948,0.182462,-0.00480385,-0.00220697,-0.00387532,1.15598e-05,-2.21348e-05,-0.0244187
17.58,-9.00016,8.99948,0.182462,0.00492702,0.0022452,-0.00386168,-1.14867e-05,2.44753e-05,-0.0244343
17.59,-9.00016,8.99948,0.182462,-0.00480392,-0.00220684,-0.00387532,1.15599e-05,-2.21348e-05,-0.0244487
17.6,-9.00016,8.99948,0.182462,0.00492709,0.00224507,-0.00386169,-1.14867e-05,2.44754e-05,-0.0244643
17.61,-9.00016,8.99948,0.182462,-0.00480398,-0.00220671,-0.00387533,1.156e-05,-2.21348e-05,-0.0244787
17.62,-9.00016,8.99948,0.182462,0.00492716,0.00224493,-0.00386169,-1.14868e-05,2.44754e-05,-0.0244943
17.63,-9.00016,8.99948,0.182462,-0.00480404,-0.00220658,-0.00387534,1.15601e-05,-2.21348e-05,-0.0245087
17.64,-9.00016,8.99948,0.182462,0.00492723,0.0022448,-0.0038617,-1.14869e-05,2.44755e-05,-0.0245242
17.65,-9.00016,8.99948,0.182462,-0.00480411,-0.00220645,-0.00387535,1.15602e-05,-2.21348e-05,-0.0245386
17.66,-9.00016,8.99948,0.182462,0.00492729,0.00224467,-0.00386171,-1.1487e-05,2.44755e-05,-0.0245542
17.67,-9.00016,8.99947,0.182462,-0.00480417,-0.00220632,-0.00387536,1.15603e-05,-2.21348e-05,-0.0245686
17.68,-9.00016,8.99948,0.182462,0.00492736,0.00224454,-0.00386172,-1.14871e-05,2.44756e-05,-0.0245842
17.69,-9.00017,8.99947,0.182462,-0.00480424,-0.00220619,-0.00387537,1.15605e-05,-2.21348e-05,-0.0245986
17.7,-9.00016,8.99948,0.182462,0.00492743,0.0022444,-0.00386173,-1.14872e-05,2.44756e-05,-0.0246142
17.71,-9.00017,8.99947,0.182462,-0.0048043,-0.00220606,-0.00387538,1.15606e-05,-2.21348e-05,-0.0246286
17.72,-9.00016,8.99948,0.182462,0.0049275,0.00224427,-0.00386174,-1.14872e-05,2.44757e-05,-0.0246442
17.73,-9.00017,8.99947,0.182462,-0.00480437,-0.00220594,-0.00387539,1.15607e-05,-2.21348e-05,-0.0246586
17.74,-9.00016,8.99948,0.182462,0.00492757,0.00224414,-0.00386175,-1.14873e-05,2.44757e-05,-0.0246741
17.75,-9.00017,8.99947,0.182462,-0.00480443,-0.00220581,-0.00387539,1.15608e-05,-2.21348e-05,-0.0246885
17.76,-9.00016,8.99948,0.182462,0.00492764,0.002244,-0.00386175,-1.14874e-05,2.44758e-05,-0.0247041
17.77,-9.00017,8.99947,0.182462,-0.0048045,-0.00220568,-0.0038754,1.15609e-05,-2.21348e-05,-0.0247185
17.78,-9.00016,8.99947,0.182462,0.00492771,0.00224387,-0.00386176,-1.14875e-05,2.44758e-05,-0.0247341
17.79,-9.00017,8.99947,0.182462,-0.00480456,-0.00220555,-0.00387541,1.1561e-05,-2.21348e-05,-0.0247485
17.8,-9.00016,8.99947,0.182462,0.00492778,0.00224374,-0.00386177,-1.14876e-05,2.44759e-05,-0.0247641
17.81,-9.00017,8.99947,0.182462,-0.00480463,-0.00220542,-0.00387542,1.15611e-05,-2.21347e-05,-0.0247785
17.82,-9.00016,8.99947,0.182462,0.00492785,0.00224361,-0.00386178,-1.14876e-05,2.44759e-05,-0.0247941
17.83,-9.00017,8.99947,0.182462,-0.00480469,-0.00220529,-0.00387543,1.15612e-05,-2.21347e-05,-0.0248085
17.84,-9.00016,8.99947,0.182462,0.00492792,0.00224347,-0.00386179,-1.14877e-05,2.4476e-05,-0.024824
17.85,-9.00017,8.99947,0.182462,-0.00480476,-0.00220516,-0.00387544,1.15613e-05,-2.21347e-05,-0.0248384
17.86,-9.00016,8.99947,0.182462,0.00492798,0.00224334,-0.0038618,-1.14878e-05,2.4476e-05,-0.024854
17.87,-9.00017,8.99947,0.182462,-0.00480482,-0.00220503,-0.00387545,1.15614e-05,-2.21347e-05,-0.0248684
17.88,-9.00016,8.99947,0.182462,0.00492805,0.00224321,-0.00386181,-1.14879e-05,2.44761e-05,-0.024884
17.89,-9.00017,8.99947,0.182462,-0.00480489,-0.0022049,-0.00387545,1.15615e-05,-2.21347e-05,-0.0248984
17.9,-9.00016,8.99947,0.182462,0.00492812,0.00224308,-0.00386182,-1.1488e-05,2.44761e-05,-0.024914
17.91,-9.00017,8.99947,0.182462,-0.00480495,-0.00220477,-0.00387546,1.15616e-05,-2.21347e-05,-0.0249284
17.92,-9.00016,8.99947,0.182462,0.00492819,0.00224294,-0.00386182,-1.14881e-05,2.44762e-05,-0.0249439
17.93,-9.00017,8.99947,0.182462,-0.00480502,-0.00220464,-0.00387547,1.15617e-05,-2.21347e-05,-0.0249583
17.98,-9.00007,8.99949,0.186518,0.00323276,0.00093095,0.2799,-0.000157972,0.000588997,-0.0250178
17.99,-9.00004,8.9995,0.189867,0.00337116,0.000964311,0.379892,-0.000223135,0.000834515,-0.0250261
18,-9,8.99951,0.194216,0.00355901,0.00100908,0.479835,-0.000286252,0.00108823,-0.025034
18.01,-8.99997,8.99952,0.199563,0.00379736,0.00106453,0.579713,-0.00034475,0.00134457,-0.0250415
18.02,-8.99993,8.99954,0.205909,0.00408628,0.00112957,0.679513,-0.00039728,0.00159969,-0.0250487
18.03,-8.99988,8.99955,0.213242,0.00442094,0.00120202,0.776776,-0.00044335,0.00185154,-0.0250554
18.04,-8.99984,8.99956,0.221524,0.00479567,0.00127963,0.869604,-0.000483136,0.00210016,-0.0250619
18.05,-8.99979,8.99957,0.230709,0.00520741,0.00136087,0.957854,-0.00051707,0.00234633,-0.0250679
18.06,-8.99973,8.99959,0.240752,0.00565349,0.00144444,1.04154,-0.000545611,0.00259052,-0.0250737
18.07,-8.99967,8.9996,0.251607,0.00613187,0.00152928,1.12086,-0.000569218,0.00283293,-0.0250792
18.08,-8.99961,8.99962,0.263232,0.00664083,0.00161451,1.19606,-0.000588306,0.00307393,-0.0250844
18.09,-8.99954,8.99963,0.275588,0.0071789,0.00169938,1.26737,-0.000603246,0.00331391,-0.0250892
18.1,-8.99947,8.99965,0.288636,0.00774381,0.00178311,1.33473,-0.000614226,0.0035531,-0.0250939
18.11,-8.99939,8.99967,0.302336,0.00833423,0.00186511,1.39833,-0.000621251,0.00379165,-0.0250982
18.12,-8.9993,8.99969,0.316652,0.00894924,0.00194486,1.45841,-0.000624519,0.00402974,-0.0251023
18.13,-8.99921,8.99971,0.331551,0.00958802,0.00202196,1.5152,-0.000624303,0.00426752,-0.0251062
18.14,-8.99911,8.99973,0.347001,0.0102499,0.00209602,1.56891,-0.000620898,0.00450507,-0.0251099
18.15,-8.999,8.99975,0.362969,0.0109307,0.00216638,1.61901,-0.000614276,0.00474237,-0.0251133
18.16,-8.99889,8.99977,0.379418,0.0116296,0.00223271,1.66565,-0.000604063,0.00497935,-0.0251165
18.17,-8.99877,8.9998,0.396316,0.0123465,0.00229478,1.70915,-0.000590347,0.00521602,-0.0251195
18.18,-8.99864,8.99982,0.413633,0.0130814,0.00235239,1.74981,-0.000573404,0.00545238,-0.0251224
18.19,-8.9985,8.99984,0.431339,0.0138292,0.00240499,1.78698,-0.000553604,0.00568836,-0.025125
18.2,-8.99836,8.99987,0.449398,0.0145895,0.00245251,1.82087,-0.000531349,0.00592388,-0.0251275
18.21,-8.99821,8.99989,0.467779,0.015363,0.002495,1.85187,-0.000506983,0.00615893,-0.0251297
18.22,-8.99805,8.99992,0.486456,0.0161503,0.00253251,1.88032,-0.000480809,0.00639345,-0.0251319
18.23,-8.99789,8.99994,0.505402,0.0169479,0.00256492,1.90587,-0.000452869,0.0066273,-0.0251338
18.24,-8.99771,8.99997,0.524589,0.0177558,0.00259227,1.92874,-0.000422943,0.00686032,-0.0251356
18.27,-8.99714,9.00005,0.583355,0.0202437,0.00264437,1.98352,-0.000322342,0.00755246,-0.0251402
18.28,-8.99694,9.00007,0.603263,0.021085,0.00265168,1.99649,-0.00028501,0.00777999,-0.0251414
18.29,-8.99672,9.0001,0.623289,0.0219331,0.00265404,2.00722,-0.000245674,0.00800557,-0.0251425
18.3,-8.9965,9.00013,0.64341,0.0227866,0.00265145,2.01568,-0.000204196,0.00822898,-0.0251435
18.31,-8.99626,9.00015,0.663604,0.0236467,0.00264391,2.02217,-0.000160094,0.00844993,-0.0251444
18.32,-8.99602,9.00018,0.683854,0.0245152,0.00263133,2.02705,-0.000113488,0.00866812,-0.0251452
18.33,-8.99577,9.00021,0.704139,0.0253833,0.00261379,2.02945,-6.46195e-05,0.00888313,-0.0251458
18.34,-8.99551,9.00023,0.724436,0.0262516,0.00259132,2.02956,-1.36794e-05,0.00909452,-0.0251464
18.35,-8.99525,9.00026,0.744724,0.027123,0.00256391,2.02787,3.89608e-05,0.009302,-0.0251468
18.36,-8.99497,9.00028,0.764983,0.0279925,0.00253177,2.02396,9.29432e-05,0.00950521,-0.0251471
18.37,-8.99469,9.00031,0.785192,0.0288616,0.00249496,2.01813,0.000147986,0.00970368,-0.0251474
18.38,-8.99439,9.00033,0.805334,0.0297334,0.00245347,2.01084,0.000203742,0.00989711,-0.0251475
18.39,-8.99409,9.00036,0.825392,0.0305987,0.00240783,2.00124,0.000259881,0.010085,-0.0251476
18.4,-8.99378,9.00038,0.845342,0.0314587,0.00235819,1.98962,0.000316125,0.0102665,-0.0251476
18.41,-8.99346,9.0004,0.865167,0.0323175,0.00230448,1.9765,0.000372201,0.0104413,-0.0251475
18.42,-8.99313,9.00043,0.884853,0.0331737,0.00224696,1.96183,0.000427862,0.0106091,-0.0251473
18.43,-8.9928,9.00045,0.904385,0.0340296,0.00218562,1.94595,0.000482896,0.0107695,-0.0251471
18.44,-8.99245,9.00047,0.923753,0.0348884,0.00212038,1.92925,0.000537083,0.0109223,-0.0251468
18.45,-8.9921,9.00049,0.942946,0.0357391,0.0020522,1.91081,0.000590281,0.0110665,-0.0251464
18.48,-8.99099,9.00055,0.999318,0.0382659,0.0018298,1.84818,0.000743158,0.01144,-0.025145
18.49,-8.9906,9.00057,1.01768,0.0391112,0.00174913,1.82619,0.000791355,0.0115442,-0.0251444
18.5,-8.9902,9.00058,1.03582,0.0399621,0.00166498,1.80413,0.000837869,0.0116383,-0.0251438
18.51,-8.9898,9.0006,1.05374,0.0408117,0.00157812,1.78146,0.000882587,0.0117217,-0.0251432
18.52,-8.98939,9.00062,1.07142,0.0416604,0.00148857,1.75832,0.00092549,0.0117935,-0.0251425
18.53,-8.98896,9.00063,1.08888,0.0425109,0.00139617,1.73501,0.000966471,0.0118534,-0.0251418
18.54,-8.98854,9.00064,1.1061,0.0433515,0.00130227,1.71061,0.00100552,0.0119004,-0.0251411
18.55,-8.9881,9.00066,1.12306,0.0441829,0.00120688,1.68528,0.00104276,0.0119326,-0.0251403
18.56,-8.98765,9.00067,1.13978,0.0450089,0.00110969,1.65942,0.00107813,0.0119496,-0.0251396
18.57,-8.9872,9.00068,1.15622,0.0458232,0.00101146,1.63262,0.00111161,0.0119509,-0.0251388
18.58,-8.98673,9.00069,1.1724,0.0466276,0.000912086,1.6051,0.00114324,0.0119353,-0.025138
18.59,-8.98626,9.0007,1.1883,0.0474254,0.000811203,1.57725,0.00117293,0.0119027,-0.0251372
18.6,-8.98578,9.0007,1.20392,0.0482191,0.000708545,1.54937,0.00120051,0.0118539,-0.0251365
18.61,-8.9853,9.00071,1.21925,0.0490031,0.000604871,1.52106,0.00122591,0.0117887,-0.0251357
18.62,-8.9848,9.00072,1.23431,0.0497781,0.000500113,1.49251,0.00124915,0.0117062,-0.0251349
18.63,-8.9843,9.00072,1.24908,0.0505465,0.000394005,1.46399,0.00127013,0.0116067,-0.0251342
18.66,-8.98275,9.00073,1.29169,0.0528068,6.86424e-05,1.37915,0.0013184,0.0112119,-0.0251319
18.67,-8.98222,9.00073,1.30532,0.0535231,-3.89071e-05,1.34947,0.00132997,0.0110412,-0.0251312
18.68,-8.98168,9.00073,1.31864,0.0542214,-0.000146064,1.31932,0.00133952,0.0108473,-0.0251305
18.69,-8.98113,9.00072,1.33167,0.054904,-0.000253216,1.28904,0.00134697,0.0106311,-0.0251298
18.7,-8.98058,9.00072,1.3444,0.0555726,-0.000360634,1.25891,0.00135219,0.0103946,-0.0251291
18.71,-8.98002,9.00072,1.35682,0.0562273,-0.000475051,1.22841,0.0017948,0.0105303,-0.0251278
18.72,-8.97945,9.00071,1.36893,0.0569219,-0.000657149,1.19771,0.00356506,0.0118316,-0.025123
18.73,-8.97888,9.0007,1.38074,0.0577442,-0.00100569,1.16709,0.00686752,0.0144854,-0.025107
18.74,-8.9783,9.00069,1.39225,0.0587861,-0.00162488,1.1368,0.0115906,0.0183976,-0.0250678
18.75,-8.9777,9.00067,1.40344,0.0601097,-0.00259444,1.10598,0.0174829,0.0233503,-0.0249924
18.76,-8.97709,9.00063,1.41433,0.0617741,-0.00398163,1.07473,0.0242554,0.0290911,-0.0248705
18.77,-8.97646,9.00059,1.42491,0.0638291,-0.00584137,1.04339,0.0316323,0.0353771,-0.024696
18.78,-8.97581,9.00051,1.43517,0.0663036,-0.00820723,1.01199,0.0393753,0.0419971,-0.0244682
18.79,-8.97513,9.00042,1.44512,0.069222,-0.0111064,0.980718,0.047291,0.0487795,-0.02419
18.8,-8.97442,9.00029,1.45475,0.072603,-0.0145597,0.949794,0.055227,0.0555885,-0.0238674
18.81,-8.97368,9.00012,1.46408,0.0764589,-0.0185808,0.919373,0.0630667,0.0623202,-0.0235078
18.82,-8.97289,8.99991,1.47311,0.0807655,-0.0231444,0.889091,0.0707265,0.0689003,-0.0231195
18.83,-8.97206,8.99965,1.48184,0.0855187,-0.0282455,0.859025,0.0781502,0.0752795,-0.02271
18.84,-8.97117,8.99934,1.49026,0.0907208,-0.0338858,0.829354,0.0852949,0.0814199,-0.0222868
18.87,-8.96818,8.99802,1.51377,0.108726,-0.0537096,0.740804,0.104856,0.0982367,-0.0209956
18.88,-8.96706,8.99745,1.52101,0.115503,-0.0612542,0.711785,0.110718,0.103279,-0.0205745
18.89,-8.96586,8.99679,1.52797,0.122655,-0.0692512,0.683156,0.116244,0.108034,-0.020165
18.9,-8.96459,8.99605,1.53465,0.13018,-0.0776983,0.655055,0.12143,0.112499,-0.0197705
18.91,-8.96325,8.99523,1.54105,0.138004,-0.0865079,0.626936,0.126284,0.116679,-0.0193933
18.92,-8.96183,8.99431,1.54716,0.146112,-0.095665,0.598855,0.130822,0.120592,-0.0190342
18.93,-8.96032,8.9933,1.553,0.154513,-0.105176,0.571019,0.135049,0.124239,-0.0186947
18.94,-8.95873,8.9922,1.55856,0.16321,-0.115045,0.54359,0.138967,0.127623,-0.0183772
18.95,-8.95704,8.99099,1.56384,0.172171,-0.125231,0.516431,0.142576,0.130745,-0.0180834
18.96,-8.95527,8.98968,1.56886,0.181389,-0.135728,0.489629,0.145885,0.13361,-0.0178141
18.97,-8.95341,8.98826,1.57361,0.190866,-0.146538,0.463319,0.148893,0.136219,-0.017571
18.98,-8.95144,8.98674,1.5781,0.200602,-0.157656,0.437605,0.151599,0.13857,-0.0173559
18.99,-8.94938,8.9851,1.58234,0.210591,-0.169076,0.412566,0.154001,0.140661,-0.0171705
19,-8.94722,8.98334,1.58633,0.220792,-0.18075,0.388026,0.156101,0.142493,-0.0170159
19.01,-8.94496,8.98147,1.59008,0.231192,-0.192662,0.364017,0.157907,0.144072,-0.0168924
19.02,-8.94259,8.97948,1.59359,0.241786,-0.204804,0.340623,0.15942,0.1454,-0.0168009
19.03,-8.94011,8.97736,1.59687,0.252564,-0.217165,0.317906,0.160638,0.146473,-0.0167426
19.04,-8.93752,8.97512,1.59992,0.263452,-0.229659,0.295474,0.161569,0.147298,-0.0167175
19.05,-8.93483,8.97276,1.60276,0.274434,-0.242266,0.273343,0.162228,0.147888,-0.0167242
19.07,-8.92911,8.96764,1.60777,0.296612,-0.26774,0.230033,0.16275,0.148374,-0.016833
19.08,-8.92608,8.9649,1.60995,0.3078,-0.280596,0.209045,0.162614,0.14827,-0.0169362
19.09,-8.92294,8.96202,1.61193,0.319038,-0.293512,0.188564,0.162211,0.147931,-0.0170726
19.1,-8.91969,8.95901,1.6137,0.330314,-0.306475,0.168649,0.161541,0.147357,-0.0172423
19.11,-8.91632,8.95588,1.61528,0.341616,-0.319471,0.149353,0.160606,0.146547,-0.0174446
19.12,-8.91284,8.95261,1.61668,0.352931,-0.332483,0.130716,0.159409,0.145503,-0.0176783
19.13,-8.90925,8.94921,1.61788,0.36424,-0.345492,0.112767,0.157957,0.14423,-0.0179415
19.14,-8.90555,8.94569,1.61892,0.375525,-0.358475,0.0955208,0.156257,0.142734,-0.0182321
19.15,-8.90173,8.94203,1.61978,0.38673,-0.371369,0.0787167,0.154327,0.141026,-0.0185463
19.16,-8.8978,8.93825,1.62047,0.397835,-0.384149,0.0623463,0.152187,0.139126,-0.0188797
19.17,-8.89376,8.93434,1.62101,0.40883,-0.396807,0.0464676,0.149854,0.137045,-0.0192289
19.18,-8.88962,8.9303,1.62139,0.419699,-0.409322,0.0310814,0.147342,0.134795,-0.0195904
19.19,-8.88536,8.92614,1.62162,0.43043,-0.421682,0.0162155,0.144664,0.132388,-0.019961
19.2,-8.881,8.92185,1.6217,0.44101,-0.433873,0.00189781,0.141834,0.129835,-0.0203377
19.21,-8.87653,8.91745,1.62164,0.451428,-0.445881,-0.0118552,0.138865,0.127145,-0.0207176
19.22,-8.87196,8.91292,1.62145,0.46167,-0.457693,-0.0250342,0.135768,0.124331,-0.0210978
19.23,-8.86729,8.90828,1.62113,0.471724,-0.469295,-0.0376363,0.132558,0.121404,-0.0214757
19.26,-8.85268,8.89368,1.61945,0.500607,-0.502665,-0.0722866,0.12238,0.112063,-0.0225709
19.27,-8.84763,8.8886,1.61867,0.509773,-0.513272,-0.0827993,0.118847,0.108802,-0.0229162
19.28,-8.84248,8.88341,1.61779,0.518694,-0.523605,-0.0928049,0.115264,0.105485,-0.023249
19.29,-8.83724,8.87812,1.61681,0.527359,-0.533653,-0.102315,0.11164,0.102122,-0.023568
19.3,-8.83192,8.87272,1.61574,0.535765,-0.543411,-0.111324,0.107984,0.0987224,-0.0238721
19.31,-8.82652,8.86724,1.61458,0.543904,-0.552871,-0.119847,0.104307,0.0952955,-0.0241606
19.32,-8.82104,8.86166,1.61333,0.55177,-0.562026,-0.127904,0.100617,0.0918498,-0.0244329
19.33,-8.81548,8.85599,1.61201,0.559357,-0.57087,-0.135517,0.096922,0.0883934,-0.0246886
19.34,-8.80985,8.85023,1.61062,0.56666,-0.579398,-0.142706,0.0932296,0.0849345,-0.0249275
19.35,-8.80414,8.84439,1.60915,0.573681,-0.58761,-0.14943,0.0895465,0.0814799,-0.0251494
19.37,-8.79253,8.83248,1.60603,0.586863,-0.603077,-0.161567,0.0822305,0.0746072,-0.0255431
19.38,-8.78662,8.82641,1.60439,0.593018,-0.610324,-0.167044,0.0786095,0.0712018,-0.0257153
19.39,-8.78066,8.82027,1.60269,0.59888,-0.617243,-0.172166,0.0750206,0.0678249,-0.0258714
19.4,-8.77464,8.81406,1.60094,0.60445,-0.623835,-0.176957,0.0714689,0.064482,-0.026012
19.41,-8.76857,8.80778,1.59915,0.609726,-0.630099,-0.181443,0.0679592,0.0611781,-0.0261375
19.42,-8.76244,8.80145,1.59731,0.614711,-0.636037,-0.185644,0.0644956,0.0579177,-0.0262485
19.43,-8.75627,8.79506,1.59543,0.619413,-0.641658,-0.189456,0.061081,0.0547042,-0.0263456
19.44,-8.75005,8.78861,1.59352,0.623834,-0.646965,-0.192893,0.0577168,0.0515397,-0.0264296
19.45,-8.74379,8.78211,1.59157,0.627975,-0.651957,-0.196,0.0544061,0.0484275,-0.0265012
19.46,-8.73749,8.77557,1.58959,0.631838,-0.656636,-0.198818,0.051152,0.0453711,-0.0265608
19.47,-8.73115,8.76898,1.58759,0.63543,-0.661011,-0.201251,0.0479569,0.042373,-0.0266094
19.48,-8.72478,8.76235,1.58557,0.638755,-0.665086,-0.203325,0.0448222,0.0394351,-0.0266474
19.49,-8.71837,8.75567,1.58353,0.641815,-0.668861,-0.205094,0.0417503,0.03656,-0.0266757
19.5,-8.71194,8.74897,1.58147,0.644613,-0.67234,-0.206605,0.038744,0.0337505,-0.0266948
19.51,-8.70548,8.74222,1.57939,0.647153,-0.675527,-0.207899,0.0358057,0.031009,-0.0267054
19.52,-8.69899,8.73545,1.57731,0.64944,-0.678427,-0.209005,0.0329377,0.0283379,-0.0267081
19.53,-8.69249,8.72865,1.57521,0.65148,-0.681045,-0.209953,0.030142,0.0257389,-0.0267036
19.54,-8.68596,8.72183,1.57311,0.653282,-0.683393,-0.210595,0.0274195,0.0232132,-0.0266924
19.55,-8.67942,8.71498,1.571,0.654853,-0.685477,-0.210949,0.0247704,0.0207612,-0.0266752
19.56,-8.67286,8.70812,1.56889,0.656197,-0.687301,-0.21107,0.022196,0.0183842,-0.0266526
19.57,-8.6663,8.70124,1.56678,0.657321,-0.688873,-0.210904,0.0196972,0.0160832,-0.0266252
19.58,-8.65972,8.69434,1.56467,0.658232,-0.690199,-0.210489,0.0172748,0.0138589,-0.0265934
19.59,-8.65313,8.68743,1.56257,0.658935,-0.691286,-0.209878,0.0149301,0.0117124,-0.0265578
19.6,-8.64654,8.68052,1.56048,0.659437,-0.69214,-0.209117,0.012664,0.00964435,-0.0265188
19.61,-8.63994,8.67359,1.55839,0.659745,-0.692769,-0.208244,0.0104775,0.00765555,-0.0264769
19.62,-8.63335,8.66666,1.55631,0.659866,-0.69318,-0.207205,0.00837132,0.0057464,-0.0264326
19.66,-8.60697,8.63893,1.54813,0.658637,-0.69281,-0.201967,0.000755738,-0.00109051,-0.0262393
19.67,-8.60038,8.63201,1.54612,0.657938,-0.692255,-0.200344,-0.000944701,-0.00259983,-0.0261887
19.68,-8.59381,8.62509,1.54412,0.657098,-0.691531,-0.198514,-0.00256385,-0.00402938,-0.0261378
19.69,-8.58724,8.61818,1.54215,0.656124,-0.690646,-0.196534,-0.00410173,-0.00537939,-0.026087
19.7,-8.58069,8.61128,1.5402,0.655024,-0.689608,-0.194454,-0.00555844,-0.00665027,-0.0260365
19.71,-8.57414,8.60439,1.53826,0.653805,-0.688426,-0.192233,-0.00693413,-0.00784244,-0.0259865
19.72,-8.56761,8.59751,1.53635,0.652476,-0.687109,-0.1899,-0.00822906,-0.00895639,-0.0259372
19.73,-8.5611,8.59065,1.53447,0.651043,-0.685663,-0.187498,-0.0094436,-0.00999279,-0.0258889
19.74,-8.55459,8.5838,1.53261,0.649514,-0.684099,-0.185059,-0.0105782,-0.0109525,-0.0258417
19.75,-8.54811,8.57697,1.53077,0.647898,-0.682425,-0.182608,-0.0116336,-0.0118363,-0.0257958
19.76,-8.54164,8.57015,1.52896,0.646201,-0.680647,-0.180021,-0.0126102,-0.0126451,-0.0257514
19.77,-8.53519,8.56335,1.52717,0.644429,-0.678773,-0.17731,-0.0135085,-0.0133794,-0.0257084
19.78,-8.52875,8.55658,1.52541,0.642591,-0.676813,-0.174523,-0.0143294,-0.0140402,-0.0256672
19.79,-8.52234,8.54982,1.52368,0.640695,-0.674775,-0.171698,-0.0150736,-0.0146286,-0.0256276
19.8,-8.51594,8.54308,1.52198,0.638745,-0.672666,-0.168768,-0.0157422,-0.0151457,-0.0255899
19.81,-8.50956,8.53637,1.52031,0.636751,-0.670493,-0.165754,-0.0163358,-0.0155926,-0.025554
19.82,-8.50321,8.52968,1.51867,0.634718,-0.668266,-0.162699,-0.0168557,-0.0159707,-0.02552
19.83,-8.49687,8.52301,1.51706,0.632655,-0.665992,-0.159634,-0.0173031,-0.0162813,-0.0254879
19.87,-8.47174,8.49656,1.51093,0.624226,-0.656578,-0.14742,-0.0183948,-0.0168816,-0.0253786
19.88,-8.46551,8.49001,1.50947,0.622107,-0.654183,-0.144476,-0.0185009,-0.0168797,-0.0253559
19.89,-8.4593,8.48348,1.50804,0.619993,-0.651782,-0.141421,-0.0185431,-0.0168203,-0.0253349
19.9,-8.45311,8.47697,1.50664,0.617889,-0.649382,-0.138259,-0.0185227,-0.0167044,-0.0253156
19.91,-8.44694,8.47049,1.50528,0.615801,-0.646989,-0.135036,-0.0184415,-0.0165339,-0.025298
19.92,-8.4408,8.46404,1.50395,0.613736,-0.644611,-0.131791,-0.0183014,-0.0163111,-0.0252819
19.93,-8.43467,8.4576,1.50265,0.611695,-0.642251,-0.128356,-0.0181046,-0.0160382,-0.0252673
19.94,-8.42856,8.45119,1.50138,0.609684,-0.639914,-0.124751,-0.0178527,-0.015717,-0.025254
19.95,-8.42248,8.44481,1.50016,0.607709,-0.637608,-0.121038,-0.0175482,-0.0153501,-0.025242
19.96,-8.41641,8.43844,1.49897,0.605774,-0.635339,-0.117269,-0.0171939,-0.0149404,-0.0252312
19.97,-8.41036,8.4321,1.49782,0.603884,-0.633113,-0.113486,-0.0167928,-0.0144911,-0.0252213
19.98,-8.40434,8.42578,1.4967,0.602044,-0.630934,-0.109721,-0.016348,-0.0140051,-0.0252124
19.99,-8.39832,8.41948,1.49562,0.600258,-0.628808,-0.106001,-0.0158627,-0.0134855,-0.0252042
20,-8.39233,8.41321,1.49458,0.598528,-0.626738,-0.102346,-0.01534,-0.0129353,-0.0251966
20.01,-8.38636,8.40695,1.49358,0.596857,-0.624729,-0.0987707,-0.014783,-0.0123573,-0.0251896
20.02,-8.3804,8.40072,1.49261,0.595248,-0.622784,-0.0952875,-0.0141947,-0.0117547,-0.025183
20.03,-8.37445,8.3945,1.49168,0.593703,-0.620906,-0.0919046,-0.013578,-0.0111301,-0.0251767
20.04,-8.36852,8.3883,1.49078,0.592225,-0.619097,-0.088628,-0.012936,-0.0104862,-0.0251707
20.07,-8.35082,8.36981,1.48826,0.588199,-0.614109,-0.0794671,-0.0108866,-0.00846509,-0.0251531
20.08,-8.34494,8.36367,1.48748,0.586998,-0.612598,-0.0766395,-0.0101713,-0.00776998,-0.0251472
20.09,-8.33908,8.35755,1.48673,0.585867,-0.611164,-0.0739239,-0.00944434,-0.00706807,-0.0251411
20.1,-8.33323,8.35145,1.48601,0.584808,-0.609809,-0.0713186,-0.00870817,-0.00636162,-0.0251349
20.11,-8.32739,8.34536,1.48531,0.583821,-0.608533,-0.0688212,-0.00796518,-0.00565281,-0.0251285
20.12,-8.32155,8.33928,1.48463,0.582904,-0.607335,-0.0662724,-0.00721757,-0.00494361,-0.0251218
20.13,-8.31573,8.33321,1.48399,0.582057,-0.606216,-0.0636639,-0.00646734,-0.00423581,-0.0251148
20.14,-8.30991,8.32716,1.48336,0.581281,-0.605175,-0.0610287,-0.00571665,-0.00353134,-0.0251076
20.15,-8.3041,8.32111,1.48277,0.580574,-0.604212,-0.0583933,-0.00496762,-0.00283214,-0.0251001
20.16,-8.2983,8.31507,1.4822,0.579937,-0.603328,-0.0557515,-0.00422234,-0.00214003,-0.0250922
20.17,-8.2925,8.30904,1.48166,0.579368,-0.602522,-0.0531187,-0.0034828,-0.00145673,-0.0250841
20.18,-8.28671,8.30302,1.48114,0.578866,-0.601792,-0.0505019,-0.0027509,-0.000783863,-0.0250756
20.19,-8.28093,8.29701,1.48065,0.578431,-0.601139,-0.0479156,-0.00202844,-0.000122968,-0.0250669
20.2,-8.27515,8.291,1.48018,0.57806,-0.60056,-0.045337,-0.00131713,0.000524545,-0.0250579
20.21,-8.26937,8.285,1.47974,0.577753,-0.600055,-0.042776,-0.000618592,0.00115739,-0.0250486
20.22,-8.26359,8.279,1.47933,0.577507,-0.599621,-0.0402493,6.56696e-05,0.00177433,-0.0250391
20.23,-8.25782,8.27301,1.47894,0.57732,-0.599258,-0.03777,0.000734287,0.00237418,-0.0250294
20.24,-8.25204,8.26702,1.47858,0.577192,-0.598963,-0.0353222,0.00138596,0.00295589,-0.0250195
20.25,-8.24627,8.26103,1.47824,0.57712,-0.598734,-0.0329126,0.00201946,0.00351853,-0.0250095
20.26,-8.2405,8.25504,1.47792,0.577102,-0.598569,-0.0305525,0.00263369,0.00406121,-0.0249994
20.27,-8.23473,8.24906,1.47763,0.577136,-0.598467,-0.0282505,0.00322766,0.00458312,-0.0249891
20.28,-8.22896,8.24307,1.47736,0.577219,-0.598424,-0.026013,0.00380049,0.00508352,-0.0249789
20.29,-8.22319,8.23709,1.47711,0.57735,-0.598439,-0.0238286,0.00435134,0.0055618,-0.0249686
20.3,-8.21741,8.2311,1.47688,0.577526,-0.598509,-0.0216999,0.00487943,0.0060174,-0.0249583
20.31,-8.21163,8.22512,1.47668,0.577744,-0.598631,-0.0196323,0.00538412,0.00644985,-0.024948
20.32,-8.20586,8.21913,1.47649,0.578003,-0.598803,-0.0176297,0.00586482,0.00685874,-0.0249379
20.33,-8.20007,8.21314,1.47633,0.5783,-0.599023,-0.0156697,0.006321,0.00724374,-0.0249278
20.34,-8.19429,8.20715,1.47618,0.578632,-0.599287,-0.013753,0.00675211,0.00760463,-0.0249178
20.35,-8.1885,8.20115,1.47605,0.578998,-0.599593,-0.0118858,0.00715778,0.0079412,-0.024908
20.37,-8.17691,8.18915,1.47585,0.579819,-0.600321,-0.00830151,0.00789171,0.00854087,-0.024889
20.38,-8.17111,8.18315,1.47578,0.580269,-0.600737,-0.00658573,0.00821961,0.00880387,-0.0248798
20.39,-8.16531,8.17714,1.47572,0.580742,-0.601184,-0.00492223,0.00852132,0.00904234,-0.0248709
20.4,-8.1595,8.17112,1.47568,0.581237,-0.60166,-0.0033072,0.00879682,0.00925639,-0.0248622
20.41,-8.15368,8.16511,1.47566,0.58175,-0.602161,-0.00174188,0.00904613,0.00944616,-0.0248538
20.42,-8.14786,8.15908,1.47565,0.582279,-0.602685,-0.000221779,0.00926933,0.00961189,-0.0248456
20.43,-8.14204,8.15305,1.47566,0.582821,-0.60323,0.00125206,0.0094665,0.00975387,-0.0248378
20.44,-8.1362,8.14702,1.47568,0.583375,-0.603791,0.00267754,0.00963789,0.00987239,-0.0248302
20.45,-8.13037,8.14097,1.47571,0.583939,-0.604368,0.00405338,0.00978379,0.00996777,-0.024823
20.46,-8.12452,8.13493,1.47576,0.584509,-0.604957,0.00538102,0.00990454,0.0100404,-0.024816
20.47,-8.11868,8.12887,1.47582,0.585084,-0.605556,0.00666045,0.0100005,0.0100908,-0.0248094
20.48,-8.11282,8.12282,1.47589,0.585661,-0.606162,0.00789157,0.0100721,0.0101193,-0.024803
20.49,-8.10696,8.11675,1.47598,0.586239,-0.606772,0.00907468,0.0101199,0.0101265,-0.024797
20.5,-8.1011,8.11068,1.47608,0.586815,-0.607385,0.0102099,0.0101444,0.010113,-0.0247912
20.51,-8.09523,8.1046,1.47618,0.587388,-0.607998,0.0112982,0.010146,0.0100793,-0.0247858
20.52,-8.08935,8.09852,1.4763,0.587955,-0.608609,0.0123407,0.0101255,0.0100261,-0.0247806
20.53,-8.08347,8.09243,1.47643,0.588516,-0.609215,0.0133387,0.0100836,0.00995405,-0.0247757
20.54,-8.07758,8.08633,1.47657,0.589067,-0.609815,0.0142937,0.0100208,0.0098639,-0.024771
20.57,-8.05988,8.06801,1.47704,0.590649,-0.611555,0.0168931,0.00971596,0.00949268,-0.0247584
20.58,-8.05397,8.06189,1.47721,0.591148,-0.612109,0.0176714,0.00957818,0.0093382,-0.0247547
20.59,-8.04806,8.05577,1.47739,0.591631,-0.612647,0.0184059,0.00942377,0.00916985,-0.0247511
20.6,-8.04214,8.04964,1.47758,0.592095,-0.613167,0.0190999,0.00925366,0.00898852,-0.0247476
20.61,-8.03622,8.04351,1.47778,0.592541,-0.613668,0.0197564,0.00906884,0.00879509,-0.0247443
20.62,-8.03029,8.03737,1.47798,0.592966,-0.614149,0.0203711,0.00887027,0.00859048,-0.0247412
20.63,-8.02436,8.03122,1.47818,0.593371,-0.614609,0.0209462,0.00865892,0.00837564,-0.0247381
20.64,-8.01842,8.02507,1.4784,0.593753,-0.615045,0.0214855,0.0084358,0.00815148,-0.0247352
20.65,-8.01248,8.01892,1.47861,0.594113,-0.615458,0.0219823,0.00820189,0.00791895,-0.0247323
20.66,-8.00654,8.01276,1.47884,0.594449,-0.615846,0.0224392,0.00795817,0.00767902,-0.0247295
20.67,-8.00059,8.0066,1.47906,0.594762,-0.616207,0.022861,0.00770564,0.00743259,-0.0247268
20.68,-7.99464,8.00044,1.47929,0.595049,-0.616543,0.0232481,0.00744531,0.00718055,-0.0247241
20.69,-7.98869,7.99427,1.47953,0.595312,-0.616851,0.0236038,0.00717817,0.00692379,-0.0247214
20.7,-7.98274,7.9881,1.47977,0.595549,-0.617131,0.023932,0.00690521,0.00666315,-0.0247187
20.71,-7.97678,7.98193,1.48001,0.595761,-0.617383,0.0242361,0.00662743,0.00639946,-0.0247161
20.72,-7.97082,7.97576,1.48025,0.595947,-0.617607,0.0245187,0.00634578,0.00613352,-0.0247134
20.73,-7.96486,7.96958,1.4805,0.596107,-0.617801,0.0247678,0.00606119,0.00586619,-0.0247107
20.76,-7.94697,7.95104,1.48125,0.596432,-0.61821,0.0253297,0.00519835,0.00506434,-0.0247025
20.77,-7.94101,7.94485,1.4815,0.596489,-0.618287,0.0254524,0.00491053,0.00479972,-0.0246997
20.78,-7.93504,7.93867,1.48176,0.59652,-0.618336,0.0255488,0.00462395,0.00453764,-0.0246969
20.79,-7.92908,7.93249,1.48202,0.596526,-0.618356,0.0256238,0.00433942,0.00427874,-0.024694
20.8,-7.92311,7.9263,1.48227,0.596508,-0.618347,0.0256736,0.00405771,0.00402365,-0.0246911
20.81,-7.91715,7.92012,1.48253,0.596465,-0.618311,0.0257012,0.00377951,0.00377299,-0.0246881
20.82,-7.91118,7.91394,1.48279,0.596399,-0.618246,0.0256999,0.00350551,0.00352737,-0.0246851
20.83,-7.90522,7.90776,1.48304,0.59631,-0.618154,0.0256729,0.00323633,0.00328735,-0.024682
20.84,-7.89926,7.90158,1.4833,0.596198,-0.618036,0.025626,0.00297261,0.00305347,-0.024679
20.85,-7.89329,7.8954,1.48356,0.596064,-0.617892,0.0255554,0.00271494,0.00282618,-0.0246758
20.86,-7.88733,7.88922,1.48381,0.595909,-0.617722,0.0254647,0.00246386,0.00260595,-0.0246727
20.87,-7.88138,7.88304,1.48406,0.595734,-0.617528,0.025359,0.00221991,0.00239319,-0.0246695
20.88,-7.87542,7.87687,1.48432,0.595539,-0.61731,0.0252383,0.00198361,0.00218826,-0.0246662
20.89,-7.86947,7.8707,1.48457,0.595325,-0.617069,0.025106,0.0017554,0.00199149,-0.024663
20.9,-7.86351,7.86453,1.48482,0.595093,-0.616806,0.024955,0.00153571,0.00180322,-0.0246597
20.91,-7.85756,7.85836,1.48507,0.594844,-0.616522,0.0247881,0.00132489,0.00162378,-0.0246564
20.92,-7.85162,7.8522,1.48531,0.594578,-0.616217,0.0246101,0.0011233,0.00145339,-0.0246531
20.96,-7.82786,7.82758,1.48628,0.593372,-0.614817,0.0237798,0.000415067,0.000866501,-0.0246398
20.97,-7.82193,7.82143,1.48652,0.593038,-0.614426,0.0235304,0.000263608,0.000744275,-0.0246364
20.98,-7.816,7.81529,1.48675,0.592694,-0.614021,0.0232608,0.000122648,0.000632131,-0.0246331
20.99,-7.81007,7.80915,1.48698,0.592341,-0.613603,0.0229775,-7.69665e-06,0.000530113,-0.0246298
21,-7.80415,7.80302,1.48721,0.591979,-0.613174,0.0226859,-0.000127311,0.000438205,-0.0246265
21.01,-7.79823,7.79689,1.48744,0.591609,-0.612733,0.0223903,-0.000236101,0.000356355,-0.0246233
21.02,-7.79232,7.79076,1.48766,0.591232,-0.612283,0.022081,-0.000334041,0.000284524,-0.02462
21.03,-7.78641,7.78464,1.48788,0.590849,-0.611824,0.0217603,-0.000421178,0.00022269,-0.0246168
21.04,-7.7805,7.77853,1.48809,0.590462,-0.611358,0.0214334,-0.000497534,0.000170755,-0.0246136
21.05,-7.7746,7.77241,1.48831,0.590071,-0.610885,0.0210925,-0.000563179,0.000128613,-0.0246104
21.06,-7.7687,7.76631,1.48852,0.589676,-0.610406,0.0207405,-0.00061824,9.61684e-05,-0.0246072
21.07,-7.76281,7.76021,1.48872,0.58928,-0.609924,0.0203828,-0.000662817,7.32474e-05,-0.0246041
21.08,-7.75692,7.75411,1.48892,0.588883,-0.609438,0.0200236,-0.000697014,5.96363e-05,-0.024601
21.09,-7.75103,7.74802,1.48912,0.588485,-0.60895,0.0196665,-0.000720954,5.50947e-05,-0.0245979
21.1,-7.74515,7.74193,1.48932,0.588088,-0.60846,0.0192981,-0.000734837,5.94158e-05,-0.0245948
21.11,-7.73927,7.73585,1.48951,0.587692,-0.607971,0.0189199,-0.000738947,7.24331e-05,-0.0245918
21.12,-7.73339,7.72977,1.48969,0.587298,-0.607482,0.0185371,-0.000733515,9.38885e-05,-0.0245888
21.16,-7.70993,7.70551,1.4904,0.585761,-0.605551,0.0169938,-0.000621375,0.000257923,-0.0245769
21.17,-7.70408,7.69946,1.49057,0.58539,-0.60508,0.0166036,-0.000572226,0.000316863,-0.024574
21.18,-7.69823,7.69341,1.49074,0.585025,-0.604614,0.0162109,-0.000515333,0.000382326,-0.0245712
21.19,-7.69238,7.68737,1.4909,0.584667,-0.604154,0.0158197,-0.000451045,0.000453937,-0.0245683
21.2,-7.68653,7.68133,1.49105,0.584317,-0.603702,0.0154331,-0.000379706,0.000531295,-0.0245654
21.21,-7.68069,7.6753,1.4912,0.583975,-0.603258,0.0150535,-0.000301662,0.000613987,-0.0245626
21.22,-7.67485,7.66927,1.49135,0.583641,-0.602823,0.014547,-0.000217291,0.000701624,-0.0245597
21.23,-7.66902,7.66324,1.49149,0.583316,-0.602397,0.0139104,-0.000126995,0.000793853,-0.0245569
21.24,-7.66319,7.65722,1.49163,0.583001,-0.601981,0.0131761,-3.11593e-05,0.000890291,-0.0245541
21.25,-7.65736,7.6512,1.49176,0.582695,-0.601575,0.0123705,6.97828e-05,0.000990589,-0.0245513
21.27,-7.64571,7.63918,1.49199,0.582114,-0.600796,0.0106276,0.000285101,0.00120147,-0.0245456
21.28,-7.63989,7.63317,1.49209,0.58184,-0.600424,0.00972183,0.000398633,0.00131129,-0.0245428
21.29,-7.63408,7.62717,1.49218,0.581576,-0.600064,0.0088093,0.000515495,0.00142353,-0.02454
21.3,-7.62826,7.62117,1.49226,0.581323,-0.599716,0.00789904,0.000635286,0.0015378,-0.0245372
21.31,-7.62245,7.61517,1.49234,0.581082,-0.59938,0.00699818,0.00075759,0.00165371,-0.0245344
21.32,-7.61664,7.60918,1.4924,0.580852,-0.599057,0.00611234,0.000881962,0.00177091,-0.0245316
21.33,-7.61083,7.60319,1.49246,0.580633,-0.598747,0.00524581,0.00100801,0.00188901,-0.0245288
21.34,-7.60503,7.59721,1.49251,0.580427,-0.598449,0.00440186,0.00113537,0.00200761,-0.0245259
21.35,-7.59922,7.59123,1.49255,0.580231,-0.598165,0.00358289,0.00126364,0.00212634,-0.0245231
21.36,-7.59342,7.58524,1.49258,0.580047,-0.597894,0.00279061,0.00139242,0.00224488,-0.0245203
21.38,-7.58183,7.57329,1.49262,0.579714,-0.597392,0.00129016,0.00165004,0.00247998,-0.0245147
21.39,-7.57603,7.56732,1.49263,0.579565,-0.59716,0.000582955,0.00177821,0.00259583,-0.0245118
21.4,-7.57023,7.56135,1.49263,0.579427,-0.596942,-9.54579e-05,0.00190551,0.00271013,-0.024509
21.41,-7.56444,7.55538,1.49262,0.579299,-0.596736,-0.000745315,0.00203162,0.00282256,-0.0245062
21.42,-7.55865,7.54941,1.49261,0.579183,-0.596544,-0.00136703,0.00215622,0.00293285,-0.0245034
21.43,-7.55286,7.54345,1.4926,0.579077,-0.596364,-0.00196117,0.00227895,0.00304079,-0.0245006
21.44,-7.54707,7.53749,1.49257,0.578981,-0.596196,-0.00252839,0.00239951,0.00314612,-0.0244978
21.45,-7.54128,7.53153,1.49254,0.578896,-0.59604,-0.00306945,0.00251761,0.00324863,-0.024495
21.46,-7.53549,7.52557,1.49251,0.57882,-0.595897,-0.00358515,0.00263293,0.00334815,-0.0244922
21.47,-7.5297,7.51961,1.49247,0.578754,-0.595764,-0.00407633,0.00274523,0.00344446,-0.0244894
21.48,-7.52391,7.51365,1.49243,0.578697,-0.595644,-0.00454387,0.00285431,0.00353734,-0.0244866
21.49,-7.51813,7.5077,1.49238,0.578649,-0.595534,-0.00498864,0.00295998,0.0036266,-0.0244839
21.5,-7.51234,7.50174,1.49233,0.578609,-0.595434,-0.00541153,0.00306204,0.00371206,-0.0244812
